全国地方公共団体コード,ID,地方公共団体名,名称,名称_カナ,名称_英字,名称_通称,POIコード,外部識別子,外部識別子の値,所在地_全国地方公共団体コード,町字ID,所在地_連結表記,所在地_都道府県,所在地_市区町村,所在地_町字,所在地_番地以下,建物名等(方書),緯度,経度,高度の種別,高度の値,電話番号,内線番号,連絡先メールアドレス,連絡先FormURL,連絡先備考（その他、SNSなど）,郵便番号,法人番号,団体名,利用可能曜日,開始時間,終了時間,利用可能時間特記事項,説明,車椅子可,車椅子貸出,ツエ貸出,バリアフリートイレ,スロープ、エレベータ、エスカレータ,点字ブロック等の移動支援,点字や読上による支援,盲導犬・介助犬、聴導犬同伴,字幕,筆談対応,優先駐車場,オストメイト対応トイレ,授乳室,おむつ替えコーナー,飲食可否,ベビーカー貸出,ベビーカー利用,URL,画像,画像_ライセンス,備考
141305,141305000001 ,神奈川県川崎市,川崎市公文書館,カワサキシコウブンショカン,,,1399,,,141330,,神奈川県川崎市中原区宮内4-1-1,神奈川県,川崎市,中原区宮内,,,35.58413874,139.6493775,,,044-733-3933,,,,,2110051,,,,8:30:00,17:00:00,休館日は毎週月曜日、年末年始（12/29〜1/3）、祝日（休日が月曜のときは直後の休日でない日）,(1)中間書庫としての文書管理（公文書の保存期間満了前に公文書館が集中管理し、情報公開や行政利用に即応する。）(2)保存期間満了前の公文書の散逸防止と歴史的公文書への移行をスムーズに行う。（歴史的公文書等の収集、保存及び情報提供。歴史を編むために必要な記録を保存し、閲覧に供する。行政評価材料となる市政の施策等の記録を保存し、閲覧に供する。）(3)歴史資料を教材とした各種講座・講演会を開催し、市民の川崎市の歴史・文化への関心を喚起する。,,,,,,,,,,,,,,,,,,http://www.city.kawasaki.jp/shisetsu/category/19-4-0-0-0-0-0-0-0-0.html,,,
141305,141305000002 ,神奈川県川崎市,川崎市役所本庁舎,カワサキシヤクショホンチョウシャ,,,1302,,,141313,,神奈川県川崎市川崎区宮本町1,神奈川県,川崎市,川崎区宮本町,,,35.53081025,139.7030271,,,044-200-2111 ,,,,,2108577,,,,8:30:00,17:00:00,休館日は土日、祝休日、年末年始（12/29〜1/3）,,,,,,,,,,,,,,,,,,,https://www.city.kawasaki.jp/170/page/0000015935.html,,,
141305,141305000003 ,神奈川県川崎市,川崎市役所南庁舎,カワサキシヤクショミナミチョウシャ,,,1302,,,141313,,神奈川県川崎市川崎区東田町5-4,神奈川県,川崎市,川崎区東田町,,,35.52980979,139.7024033,,,044-200-2111 ,,,,,2100005,,,,8:30:00,17:00:00,休館日は土日、祝休日、年末年始（12/29〜1/3）,,,,,,,,,,,,,,,,,,,https://www.city.kawasaki.jp/170/page/0000015950.html,,,
141305,141305000004 ,神奈川県川崎市,川崎市役所北庁舎,カワサキシヤクショキタチョウシャ,,,1302,,,141313,,神奈川県川崎市川崎区宮本町3-3,神奈川県,川崎市,川崎区宮本町,,,35.53193931,139.7035923,,,044-200-2111 ,,,,,2100004,,,,8:30:00,17:00:00,休館日は土日、祝休日、年末年始（12/29〜1/3）,,,,,,,,,,,,,,,,,,,https://www.city.kawasaki.jp/170/page/0000015976.html,,,
141305,141305000005 ,神奈川県川崎市,かわさき市税事務所,カワサキシゼイジムショ,,,1399,,,141313,,神奈川県川崎市川崎区砂子1-8-9川崎御幸ビル1〜4階,神奈川県,川崎市,川崎区砂子,,,35.53083129,139.7016525,,,044-200-3938,,,,,2100006,,,,8:30:00,17:00:00,休館日は土日、祝休日、年末年始（12/29〜1/3）,市税事務所、事務室,,,,,,,,,,,,,,,,,,https://www.city.kawasaki.jp/230/page/0000020134.html,,,
141305,141305000006 ,神奈川県川崎市,しんゆり市税事務所,シンユリシゼイジムショ,,,1399,,,141372,,神奈川県川崎市麻生区万福寺1-2-2新百合トウェンティワン5階,神奈川県,川崎市,麻生区万福寺,,,35.60292038,139.5058251,,,044-543-8988,,,,,2150004,,,,8:30:00,17:00:00,休館日は土日、祝休日、年末年始（12/29〜1/3）,市税事務所、事務室,,,,,,,,,,,,,,,,,,https://www.city.kawasaki.jp/230/page/0000020333.html,,,
141305,141305000007 ,神奈川県川崎市,こすぎ市税分室,コスギシゼイブンシツ,,,1399,,,141330,,神奈川県川崎市中原区小杉町3-245中原区役所3階,神奈川県,川崎市,中原区小杉町,,,35.57627671,139.6557525,,,044-744-3113,,,,,2110063,,,,8:30:00,17:00:00,休館日は土日、祝休日、年末年始（12/29〜1/3）,市税事務所、事務室,,,,,,,,,,,,,,,,,,https://www.city.kawasaki.jp/230/page/0000020107.html,,,
141305,141305000008 ,神奈川県川崎市,みぞのくち市税事務所,ミゾノクチシゼイジムショ,,,1399,,,141348,,神奈川県川崎市高津区下作延2-7-60,神奈川県,川崎市,高津区下作延,,,35.59940977,139.6065328,,,044-820-6555,,,,,2130033,,,,8:30:00,17:00:00,休館日は土日、祝休日、年末年始（12/29〜1/3）,市税事務所、事務室,,,,,,,,,,,,,,,,,,https://www.city.kawasaki.jp/230/page/0000020311.html,,,
141305,141305000009 ,神奈川県川崎市,川崎市藤子・Ｆ・不二雄ミュージアム,カワサキシフジコ・エフ・フジオミュージアム,Kawasaki City Fujiko・F・Fujio Museum,,802,,,141356,,神奈川県川崎市多摩区長尾2-8-1,神奈川県,川崎市,多摩区長尾,,,35.60992365,139.5734323,,,0570-055-245,,,,,2140023,,,,10:00:00,18:00:00,休館日は火曜日、年末年始（臨時開館あり）,「ドラえもん」などの名作を生み出した漫画家、藤子・F・不二雄の作品世界やメッセージを、幅広い世代に伝えていく文化施設です。展示室のほか、短編アニメを見ることができるFシアターや、作品にちなんだメニューを取り揃えたカフェ、限定商品満載のショップ等が楽しめます。,可,有,,有,有,,有,可,有,可,,有,有,有,否,,否,http://fujiko-museum.com/,,,本施設は日時指定による事前予約制の入館となります。（※チケットは、ミュージアム公式ホームページより購入いただけます。）
141305,141305000010 ,神奈川県川崎市,川崎市岡本太郎美術館,カワサキシオカモトタロウビジュツカン,"Taro Okamoto Museum of Art, Kawasaki",,802,,,141356,,神奈川県川崎市多摩区枡形7-1-5,神奈川県,川崎市,多摩区枡形,,,35.60806915,139.5574537,,,044-900-9898,,25okamoto@city.kawasaki.jp,,,2140032,,川崎市,火水木金土日,9:30:00,17:00:00,休館日は月曜日（月曜が祝日の場合は除く）、祝日の翌日（祝日の翌日が土日にあたる場合を除く）、年末年始,川崎市岡本太郎美術館は、本市ゆかりの芸術家・岡本太郎氏からのおよそ１８００点にのぼる作品等の寄贈をきっかけに設立され、岡本太郎と関連する近現代美術を扱う美術館として、展覧会やさまざまなイベント、教育普及活動等を通じて、芸術及び文化の発展に寄与することを目的としています。,可,有,,有,エレベータ有,,一部作品の音声ガイド有,可,,有,,有,有,有,展示室内飲食禁止、建物内飲料のみ可,有,可,http://www.taromuseum.jp/,,,入館は16:30まで。観覧料有(料金は展覧会ごとに異なります。)
141305,141305000011 ,神奈川県川崎市,川崎市市民ミュージアム,カワサキシシミンミュージアム,Kawasaki City Museum,,802,,,141372,,神奈川県川崎市麻生区上麻生6-15-2,神奈川県,川崎市,麻生区上麻生,,,35.58865996,139.6474754,,,044-712-2800,,,,,2150021,,,,,,,令和５年１０月に川崎市市民ミュージアムを仮設施設へ移転し、被災収蔵品の修復等を行いながら、市民の身近な多くの場所で企画展や出張形式での教育普及事業等等、博物館・美術館活動を実施しています。,,,,,,,,,,,,,,,,,,https://www.kawasaki-museum.jp/,,,令和５年１０月に仮設施設に移転
141305,141305000012 ,神奈川県川崎市,アートガーデンかわさき,アートガーデンカワサキ,ART GARDEN KAWASAKI,,802,,,141313,,神奈川県川崎市川崎区駅前本町12-1川崎駅前タワー・リバーク3階,神奈川県,川崎市,川崎区駅前本町,,,35.53193817,139.6985691,,,044-272-7366,,,,,2100007,,,火水木金土日,10:00:00,19:00:00,休館日は月曜日、年末年始,美術作品の展示等のための文化施設です。,可,有,,有,有,,,可,,可,,有,,有,可,,可,"http://www.kbz.or.jp/facility/artgarden/
",,,
141305,141305000013 ,神奈川県川崎市,川崎市国際交流センター,カワサキシコクサイコウリュウセンター,,,1305,,,141330,,神奈川県川崎市中原区木月祗園町2-2,神奈川県,川崎市,中原区木月祗園町,,,35.56834291,139.6486556,,,044-435-7000,,,,,2110033,,,,9:00:00,21:00:00,休館日は年末年始 （12/29?1/3）、設備点検日,市民の国際理解を増進し、国際的な文化交流や市民交流を通じて相互理解を深めるための活動拠点です。会議室などの利用のほか、外国人の窓口相談や情報提供、イベント開催なども行っています。,可,有,,有,有,,,可,,可,有,,,有,可,,可,https://www.kian.or.jp/,,,
141305,141305000014 ,神奈川県川崎市,川崎能楽堂,カワサキノウガクドウ,KAWASAKI NOH THEATER,川崎能楽堂,1305,,,141313,,神奈川県川崎市川崎区日進町1-37,神奈川県,川崎市,川崎区日進町,,,35.52753873,139.6947484,,,044-222-7995,,,,,2100024,3020005010304,,月火木金土日,9:00:00,21:00:00,休館日は年末年始（12/29〜1/3）、水曜日,能・狂言をはじめとする音楽、演劇等の発表・鑑賞のための文化施設です。,可,,,有,,,,可,,可,,,,,否,,,https://www.kbz.or.jp/facility/noh/,,,
141305,141305000015 ,神奈川県川崎市,ミューザ川崎シンフォニーホール,ミューザカワサキシンフォニーホール,MUZA Kawasaki Symphony Hall,,1016,,,141321,,神奈川県川崎市幸区大宮町1310,神奈川県,川崎市,幸区大宮町,,,35.53098051,139.6946924,,,044-520-0100,,,,,2128557,,,,9:00:00,22:00:00,休館日は年末年始（12/29〜1/3）、保守点検日,2004年7月にオープン。国内最大級のパイプオルガンを備え、ホールは、らせん状の客席が360度ステージを囲むワインヤード方式を採用。ステージと客席に一体感が生まれます。世界水準のオーケストラ演奏など、多彩なジャンルのコンサートが行われています。,可,有,,有,有,,,可,,可,有,有,,有,ホール内不可,,イベントによる,http://www.kawasaki-sym-hall.jp/,,,
141305,141305000016 ,神奈川県川崎市,ラゾーナ川崎プラザソル,ラゾーナカワサキプラザソル,LAZONA KAWASAKI Plazasol,,1012,,,141321,,神奈川県川崎市幸区堀川町72-1ラゾーナ川崎プラザ5F,神奈川県,川崎市,幸区堀川町,,,35.53321195,139.6956299,,,044-874-8501,,info@plazasol.jp,,,2128576,,,,10:00:00,22:00:00,ホール利用の無い日の終了時刻は20:00。原則年中無休※施設保守点検日等は休館,劇場用LED照明設備と８段式のロールバックチェアシステムを有する、レイアウト自在の多目的ホールで、音楽、演劇等の発表・鑑賞のための文化施設です。,可,,,有,有,,,可,,,,,,有,可,,可,http://www.plazasol.jp/,,,
141305,141305000017 ,神奈川県川崎市,男女共同参画センター（すくらむ２１）,ダンジョキョウドウサンカクセンター（スクラムニジュウイチ）,,,1305,,,141348,,神奈川県川崎市高津区溝口2-20-1,神奈川県,川崎市,高津区溝口,,,35.60454896,139.6091758,,,044-813-0808,,,,,2130001,,,,8:30:00,21:30:00,休館日は毎月第3火曜日、年末年始(12/29〜1/3),"  川崎市男女共同参画センターは、川崎市における男女平等施策を推進するための拠点施設です。
  青少年の主体的な舞台芸術活動の促進に寄与することを目的としてホールを付設しています。",可,有,,有,有,有,有,可,,可,有,,有,有,可,,可,https://www.scrum21.or.jp/,,,
141305,141305000018 ,神奈川県川崎市,川崎市総合自治会館,カワサキシソウゴウジチカイカン,,,1305,,,141330,,神奈川県川崎市中原区小杉町3-600 コスギ サード アヴェニュー 4階,神奈川県,川崎市,中原区小杉町,,,35.57505912,139.6553035,,,044-733-1232,,,,,2110063,,,月火水木金土日,9:00:00,21:00:00,休館日は第3月曜日（施設点検日）、年末年始（年末年始(12/29〜1/3),川崎市における市民自治活動の全市拠点として、市民の学習やふれあいの場として広く利用されている。,可,有,,有,有,,,有,,有,,有,有,有,否,,有,https://www.jichizaidan.or.jp/,,,
141305,141305000019 ,神奈川県川崎市,新百合トウェンティワンホール,シンユリトウェンティワンホール,Shinyuri Twenty-One Hall,,1012,,,141372,,神奈川県川崎市麻生区万福寺1-2-2　新百合21ビル地下2階,神奈川県,川崎市,麻生区万福寺,,,35.60297707,139.505905,,,044-952-5000,,,,,2150004,,,,9:00:00,21:00:00,休館日は年末年始(12/29〜1/3)、毎月最終月曜日（祝日の場合は翌日）,講演会や展示会、演劇等のための文化施設です。,,,,有,有,,,可,,可,,有,有,有,可,,可,http://shinyuri21hall.jp/,,,
141305,141305000020 ,神奈川県川崎市,川崎市民プラザ（指定都市記念市民プラザ）,カワサキシミンプラザ（シテイトシキネンシミンプラザ）,,,1305,,,141348,,神奈川県川崎市高津区新作1-19-1,神奈川県,川崎市,高津区新作,,,35.58491848,139.6105082,,,044-888-3131,,,,,2130014,,,,9:00:00,21:30:00,休館日は年末年始（12/29〜1/3）、保守点検日,市民の健康の増進及び文化の振興を図るとともに、市民相互の交流の機会を提供することを目的とした公の施設です。,可,有,,有,有,有,有,可,有,可,有,有,有,有,可,,可,https://www.kawasaki-shiminplaza.jp/,,,
141305,141305000021 ,神奈川県川崎市,川崎市平和館,カワサキシヘイワカン,,,1305,,,141330,,神奈川県川崎市中原区木月住吉町33-1,神奈川県,川崎市,中原区木月住吉町,,,35.56873331,139.6589639,,,044-433-0171,,,,,2110021,,,,9:00:00,17:00:00,休館日は毎週月曜日、毎月第3火曜日（設備点検日）、年末年始（12/29〜1/3）。※月曜日、第3火曜日が国民の休日に当たるときは、直後の休日でない日,川崎市平和館は、「市民の平和に対する理解を深めるとともに、平和を希求する市民相互の交流及び平和活動を推進し、もって平和都市の創造と恒久平和の実現に寄与すること」を目的に設置された施設です。「平和とは、すべての人間が暴力や差別、貧困や環境破壊におびやかされず安心して生活できる」ことである」との考えのもと、平和、人権、飢餓・貧困、環境に関する啓発の場として、市民の平和交流の場として利用されています。また、平和に関する映像や情報、学習資料を提供するとともに、原爆展などの企画展を開催しています。また、平和交流の場として屋内広場や会議室を貸出しています。,可,有,,有,有,有,,可,,,有,有,有,有,不可,,可,http://www.city.kawasaki.jp/shisetsu/category/21-21-0-0-0-0-0-0-0-0.html,,,
141305,141305000022 ,神奈川県川崎市,スポーツ・文化総合センター（カルッツかわさき）,スポーツ・ブンカソウゴウセンター（カルッツカワサキ）,,,1110,,,141313,,神奈川県川崎市川崎区富士見1-1-4,神奈川県,川崎市,川崎区富士見,,,35.52970242,139.708999,,,044-222-5211,,,,,2100011,,,,9:00:00,21:30:00,休館日は偶数月の第4月曜日（祝日の場合は、翌日以降の平日）、年末年始（12/29〜1/3）,大体育室、小体育室、トレーニング室、武道室、研修室があり、スポーツデーやスポーツ教室等の個人利用と団体利用ができる施設です。,,,,,,,,,,,,,,,,,,https://culttz.city.kawasaki.jp/,,,
141305,141305000023 ,神奈川県川崎市,かわさき市民活動センター,カワサキシミンカツドウセンター,,,1305,,,141330,,神奈川県川崎市中原区新丸子東3-1100-12パークシティ武蔵小杉ミッドスカイタワー,神奈川県,川崎市,中原区新丸子東,,,35.5746663,139.6604504,,,044-430-5641,,,,,2110004,9020005009332,,月火水木金土日,9:00:00,21:00:00,日曜・祝日、12/28、1/4は午後5時半閉館。休館日は年末年始(12/29〜1/3）、施設点検日（原則第3月曜日、祝日の場合は翌日）。,川崎市における市民活動の中間支援組織として市民相互の連携を図りながら市民活動の活性化を促進するとともに、青少年の心身の健全な育成を図るため、青少年事業の推進及び地域組織への支援を行い、もって住みよい地域社会の確立に寄与することを目的としています。,可,,,有,有,有,,可,,,有,,有,有,"飲は可
食は否",,可,https://www2.kawasaki-shiminkatsudo.or.jp/volunt/,,,
141305,141305000024 ,神奈川県川崎市,川崎市アートセンター,カワサキシアートセンター,,,1012,,,141372,,神奈川県川崎市麻生区万福寺6-7-1,神奈川県,川崎市,麻生区万福寺,,,35.60597645,139.5056903,,,044-955-0107,,,,,2150004,,,,9:00:00,22:30:00,休館日は施設点検日（毎月第2月曜日※祝日の場合は、その翌日）、年末年始（12/29〜1/3）,川崎市アートセンターは「しんゆり・芸術のまち」に文化振興の拠点としてオープンし、小劇場では演劇、ミュージカル、寄席、ジャズ等の公演が行われ、映像館では新作から名画まで、世界の多様な映画を上映しております。貸館も行っております。,,,,,,,,,,,,,,,,,,https://kawasaki-ac.jp/,,,
141305,141305000025 ,神奈川県川崎市,とどろきアリーナ,トドロキアリーナ,,,1110,,,141330,,神奈川県川崎市中原区等々力1-3,神奈川県,川崎市,中原区等々力,,,35.58757458,139.6473268,,,044-798-5000,,,,,2110052,,,,9:00:00,21:30:00,休館日は年末年始（12/29〜1/3）、施設点検日(原則第4月曜日),メインアリーナ、サブアリーナ、トレーニング室、体育室、研修室があり、スポーツデーやスポーツ教室等の個人利用と団体利用ができる施設です。,,,,,,,,,,,,,,,,,,https://kawasaki-todoroki-park.co.jp/guide/arena/,,,
141305,141305000026 ,神奈川県川崎市,幸スポーツセンター,サイワイスポーツセンター,,,1110,,,141321,,神奈川県川崎市幸区戸手本町1-11-3,神奈川県,川崎市,幸区戸手本町,,,35.5443892,139.6863873,,,044-555-3011,,,,,2120023,,,,9:00:00,21:30:00,休館日は年末年始（12/29〜1/3）、施設点検日(原則第4月曜日),大体育室、小体育室、トレーニング室、研修室、スタジオがあり、スポーツデーやスポーツ教室等の個人利用と団体利用ができる施設です。,,,,,,,,,,,,,,,,,,"https://saiwai-sc.com/default/
",,,
141305,141305000027 ,神奈川県川崎市,高津スポーツセンター,タカツスポーツセンター,,,1110,,,141348,,神奈川県川崎市高津区ニ子3-15-1,神奈川県,川崎市,高津区ニ子,,,35.60332,139.6221308,,,044-813-6531,,,,,2130002,,,,9:00:00,21:30:00,休館日は年末年始（12/29〜1/3）、施設点検日(原則第4月曜日),大体育室、小体育室、トレーニング室、武道室、研修室があり、スポーツデーやスポーツ教室等の個人利用と団体利用ができる施設です。,,,,,,,,,,,,,,,,,,http://takaspo.life/,,,
141305,141305000028 ,神奈川県川崎市,宮前スポーツセンター,ミヤマエスポーツセンター,,,1110,,,141364,,神奈川県川崎市宮前区犬蔵 1-10-3 ,神奈川県,川崎市,宮前区犬蔵 ,,,35.58969852,139.5623276,,,044-976-6350,,,,,2160011,,,,9:00:00,21:30:00,休館日は年末年始（12/29〜1/3）、施設点検日(原則第4月曜日),大体育室、小体育室、トレーニング室、研修室があり、スポーツデーやスポーツ教室等の個人利用と団体利用ができる施設です。,,,,,,,,,,,,,,,,,,http://miyamae-sc.com/,,,
141305,141305000029 ,神奈川県川崎市,多摩スポーツセンター,タマスポーツセンター,,,1110,,,141356,,神奈川県川崎市多摩区菅北浦4-12-5,神奈川県,川崎市,多摩区菅北浦,,,35.62426777,139.5302376,,,044-946-6030,,,,,2140008,,,,9:00:00,21:30:00,休館日は年末年始（12/29〜1/3）、施設点検日(原則第4月曜日),大体育室、小体育室、トレーニング室、武道室、研修室、温水プール、アーチェリー場、野球場、テニスコートがあり、スポーツデーやスポーツ教室等の個人利用と団体利用ができる施設です。,,,,,,,,,,,,,,,,,,"https://www.tama-sports.net/
",,,
141305,141305000030 ,神奈川県川崎市,麻生スポーツセンター,アサオスポーツセンター,,,1110,,,141372,,神奈川県川崎市麻生区上麻生3-6-1,神奈川県,川崎市,麻生区上麻生,,,35.60013826,139.5050835,,,044-951-1234,,,,,2150021,,,,9:00:00,21:30:00,休館日は年末年始（12/29〜1/3）、施設点検日(原則第4月曜日),大体育室、小体育室、トレーニング室、武道室、研修室があり、スポーツデーやスポーツ教室等の個人利用と団体利用ができる施設です。,,,,,,,,,,,,,,,,,,"https://www.asao-sports.com/
",,,
141305,141305000031 ,神奈川県川崎市,石川記念武道館,イシカワキネンブドウカン,,,1113,,,141321,,神奈川県川崎市幸区下平間357,神奈川県,川崎市,幸区下平間,,,35.54868998,139.6858684,,,044-544-0493,,,,,2120053,,,,9:00:00,21:30:00,休館日は年末年始（12/29〜1/3）、施設点検日(原則第4月曜日),剣道場、柔道場があり、スポーツデーやスポーツ教室等の個人利用と団体利用ができる施設です。,,,,,,,,,,,,,,,,,,"https://ishikawakinenbudokan.com/default/
",,,
141305,141305000032 ,神奈川県川崎市,アートガーデンかわさき特別展示室（川崎浮世絵ギャラリー）,アートガーデンカワサキトクベツテンジシツ（カワサキウキヨエギャラリー）,,,802,,,141313,,神奈川県川崎市川崎区駅前本町12-1川崎駅前タワー・リバーク3階,神奈川県,川崎市,川崎区駅前本町,,,35.53202051,139.6986181,,,044-280-9511,,,,,2100007,,,,11:00:00,18:00:00,休館日は月曜日、年末年始（12/29〜1/3）、展示替の期間,公益社団法人川崎・砂子の里資料館が保有する豊富なコレクションから、企画展ごとに選ばれた50点以上の浮世絵を展示する施設です。,可,有,,有,,,,,,,,有,,有,否,,可,https://ukiyo-e.gallery/,,,入館は18:15まで。入館料500円(高校生以下、障がいのある方と介助者1名無料)
141305,141305000033 ,神奈川県川崎市,小黒恵子童謡記念館,オグロケイコドウヨウキネンカン,Keiko Oguro children's song museum,,803,,,141348,,神奈川県川崎市高津区諏訪3-13-8,神奈川県,川崎市,高津区諏訪,,,35.6021267065971,139.62604845231775,,,044-381-3490,,,,,2130004,,,,10:00:00,17:00:00,休館日は火曜日、水曜日、金曜日、土曜日、年末年始,詩人・童謡作家の小黒恵子の作品展示や、コンサート等イベントの開催の他、音楽やアート活動のための貸室も行っている記念館です。,可,,,有,,,,可,,可,,,有,有,否,,可,https://xn--i8s3qt0huor17hbct8ub4z7cxwk.jp/,,,・大人：200円、小学生以上18歳以下：100円
141305,141305000034 ,神奈川県川崎市,川崎市労働資料室,カワサキシロウドウシリョウシツ,,,1306,,,141313,,神奈川県川崎市川崎区富士見2-1-3,神奈川県,川崎市,川崎区富士見,,,35.52879235,139.7077861,,,070-4226-3857,,,,,2100011,,,,9:00:00,17:00:00,休館日は第3月曜日（祝日にあたる場合はその直後の平日）、年末年始（12/29〜1/3）、施設点検日,"労働に関する図書をはじめ、雑誌、新聞、機関誌（紙）、各調査資料など約41,000点を揃え、労使間の諸問題や勤労者の福祉の向上を図る調査・研究など労働問題について、勤労市民、経営者、研究者、一般市民のさまざまな活動に役立つよう設立された専門図書館である。",,,,,,,,,,,,,,,,,,https://www.city.kawasaki.jp/280/page/0000148830.html,,,・令和5年8月30日から教育文化会館の1階に仮移転し、運営を再開しています。
141305,141305000035 ,神奈川県川崎市,川崎市産業振興会館,カワサキシサンギョウシンコウカイカン,,産振会館,1306,,,141321,,神奈川県川崎市幸区堀川町66-20,神奈川県,川崎市,幸区堀川町,,,35.53530675,139.7009375,,,044-548-4111,,,,,2120013,,,,9:00:00,21:00:00,休館日は年末年始（12/29〜1/3）、設備点検日,　経済の国際化、高度情報化、技術革新等による産業構造の変化に対応するため、企業間における情報交流、企業の技術開発、販路開拓事業の推進等を図り、もって本市産業の発展と地域経済の活性化に寄与することを目的に設立された会館です。,可,無,無,有,エレベーター,有,階段手すり,可,,,有,有,無,有,要：会館職員の許可,無,可,https://kawasaki-sanshinkaikan.jp/,,,
141305,141305000036 ,神奈川県川崎市,川崎市生活文化会館,カワサキシセイカツブンカカイカン,,てくのかわさき,1306,,,141348,,神奈川県川崎市高津区溝口1-6-10,神奈川県,川崎市,高津区溝口,,,35.59880831,139.6140074,,,044-812-1090　　　　　,,,,,2130001,,,月〜日,8:30:00,22:00:00,休館日は年末年始（12/29〜1/3）、設備点検日。受付8:30〜20:00、利用9:00〜22:00。,市内技術・技能職者の拠点として、生活に根差した技能について、技能職者が相互の交流及び技能水準の向上を図り、後継者の育成に努めるとともに、市民が多目的に使用し、技能職者と親しく交流しながら技術・技能への理解を深め、もって技能を尊重する社会の形成及びその振興に寄与することを目的として開館しました。,可,有（１台）,無,有,有,1・2・3階のみ,,可,,可,有,有,無,有,可（軽食のみ）,無,可,https://www.zai-roudoufukushi-kanagawa.or.jp/tekuno.html,,,
141305,141305000037 ,神奈川県川崎市,川崎市コンベンションホール,カワサキシコンベンションホール,KAWASAKI CONVENTION HALL,,1016,,,141330,,神奈川県川崎市中原区小杉町2-276-1パークシティ武蔵小杉　ザ　ガーデン　タワーズイースト２階,神奈川県,川崎市,中原区小杉町,,,35.57769464,139.6568807,,,044-455-6340,,info@kawasakicity-ch.jp,,,2110063,,,日月火水木金土,9:00:00,22:00:00,休館日は年末年始（12/29〜1/3）,国際会議や学術会議、講演会、式典、展示会、イベント、パーティ等、多種多様に利用できる多目的ホール,可,有,無,有,有,無,無,可,無,,無,無,無,無,可,無,有,http://www.kawasakicity-ch.jp/,,,おむつ替えコーナーはありませんが、誰でもトイレ内におむつ交換台はございます。
141305,141305000038 ,神奈川県川崎市,川崎競輪場,カワサキケイリンジョウ,,,1019,,,141313,,神奈川県川崎市川崎区富士見2-1-6,神奈川県,川崎市,川崎区富士見,,,35.52909145,139.7103695,,,044-233-5501,,,,,2100011,,,,,,"利用可能時間は9:00〜16:00（前売投票所のみ）、7:20〜17:00（場内は10:00〜）、7:20〜21:00（場内は10:00〜）。
休館日は開催により異なりますのでホームページから確認してください。",川崎競輪の観戦・投票の他、他場の競輪の観戦・投票を行うことができます。また、場内にはKKP（BMX＆スケートボードパーク）がございます。,,,,,,,,,,,,,,,,,,http://www.kawasakikeirin.com/pc/index.html,,,
141305,141305000039 ,神奈川県川崎市,川崎市中央卸売市場北部市場,カワサキシチュウオウオロシウリシジョウホクブシジョウ,,,4007,,,141364,,神奈川県川崎市宮前区水沢1-1-1,神奈川県,川崎市,宮前区水沢,,,35.5911081,139.54955,,,044-975-2211,,,,,2168522,,,,,,"利用可能時間は店舗によって異なります。
休市日は青果部・水産部・関連事業者・花き部ごとに異なるため、ホームページの市場カレンダーから確認してください。",卸売市場は、食生活に欠かすことのできない野菜や果物、魚介類などの生鮮食料品等を、安全・安心、適正な価格で安定的に供給している、食の流通拠点です。北部市場は、消費地に立地していることや、東名高速道路のインターチェンジから近いといった立地条件に恵まれた中央卸売市場であり、この特性を活かして、市民の食生活を支えています。,可,有,無,有,"スロープ、エレベータ有
エスカレータ無",無,無,無,無,無,有,無,無,有,可,無,有,http://www.city.kawasaki.jp/shisetsu/category/46-2-0-0-0-0-0-0-0-0.html,,,
141305,141305000040 ,神奈川県川崎市,川崎市地方卸売市場南部市場,カワサキシチホウオロシウリシジョウナンブシジョウ,,,4007,,,141321,,神奈川県川崎市幸区南幸町3-126-1,神奈川県,川崎市,幸区南幸町,,,35.53426345,139.6856269,,,044-543-5271,,,,,2120016,,,,,,"利用可能時間は店舗によって異なります。
休市日は青果部・水産部・関連事業者・花き部ごとに異なるため、ホームページの市場カレンダーから確認してください。",卸売市場は、食生活に欠かすことのできない野菜や果物、魚介類などの生鮮食料品等を、安全・安心、適正な価格で安定的に供給している、食の流通拠点です。南部市場は、川崎の中心市街地に近い立地特性を活かし、市民の食生活を支えるとともに、食文化等の発信を行っています。,可,無,無,無,無,無,無,無,無,無,有,無,無,有,可,無,有,http://www.city.kawasaki.jp/shisetsu/category/46-3-0-0-0-0-0-0-0-0.html,,,
141305,141305000041 ,神奈川県川崎市,川崎市農業技術支援センター,カワサキシノウギョウギジュツシエンセンター,,,3699,,,141356,,神奈川県川崎市多摩区菅仙谷3-17-1,神奈川県,川崎市,多摩区菅仙谷,,,35.6249582,139.5230607,,,044-945-0153,,,,,2140006,,,,,,利用可能時間は9:30〜16:30（4月〜8月）、9:30〜16:00（9月〜3月）。休館日は毎週月曜日（月曜日祝日の場合は開所し、翌平日が休所日）、年末年始（12/29〜1/3）。,農業技術支援センターは、昭和34年に園芸技術普及農場山地果樹試験地として設置され、昭和47年にフルーツパークに名称変更し、一般に開放されるようになりました。平成20年に、組織改編にともない現在の名称に改めました。現在は市内農業者への果樹、野菜、花きの各分野に係る農産物の生産技術の向上を支援する事業や、市民の農業に対する更なる理解と参加を促進するための事業を行っています。,,,,,,,,,,,,,,,,,,http://www.city.kawasaki.jp/shisetsu/category/46-4-0-0-0-0-0-0-0-0.html,,,
141305,141305000042 ,神奈川県川崎市,川崎市都市農業振興センター,カワサキシトシノウギョウシンコウセンター,,,3699,,,141348,,神奈川県川崎市高津区梶ヶ谷2-1-7JAセレサ梶ヶ谷ビル2F,神奈川県,川崎市,高津区梶ヶ谷,,,35.59080026,139.6030828,,,044-860-2462,,,,,2130015,,,,8:30:00,17:00:00,休館日は土日、祝休日、年末年始（12/29〜1/3）,都市農業振興センターでは、農業者が都市的立地を活かした健全な農業経営を行い「生業」として息づき、併せて、安らぎや潤いなど多面的な役割を果たしている貴重な空間である農地を守っていけるよう、農業者の営農意欲や市民の農業理解をさらに向上させるなどの取組を行っています。,,,,,,,,,,,,,,,,,,http://www.city.kawasaki.jp/kurashi/category/32-12-3-1-0-0-0-0-0-0.html,,,
141305,141305000043 ,神奈川県川崎市,王禅寺余熱利用市民施設（ヨネッティー王禅寺）,オウゼンジヨネツリヨウシミンシセツ（ヨネッティーオウゼンジ）,Yonetty Ozenji,ヨネッティー王禅寺,1107,,,141372,,神奈川県川崎市麻生区王禅寺1321,神奈川県,川崎市,麻生区王禅寺,,,35.59365709,139.52468,階数,４,044-951-3636,,,https://secure.sportsoasis.co.jp/about/contact/index.html,Twitter: @Yonettyouzenji; Instagram: @yonetty_ouzenji,2150013,7000020141305,川崎市,月火水木金土日,9:00:00,21:00:00,休館日は年末年始（12/29〜1/3）、施設点検日(原則第4水曜日),ヨネッティー王禅寺は、隣接する王禅寺処理センターの余熱を利用したスポーツ施設です。温水プールには流水プールや子どもに人気のスライダープールがあるほか、トレーニングルーム、シニア休養施設、レストラン、図書コーナー、会議室などがあります。,可,有,無,有,有,有,無,有,無,有,有,有,有,有,可,無,有,https://www.sportsoasis.co.jp/sh41/,,,
141305,141305000044 ,神奈川県川崎市,川崎市環境総合研究所,カワサキシカンキョウソウゴウケンキュウジョ,Kawasaki Environment Research Institute,,1513,,,141313,,神奈川県川崎市川崎区殿町3-25-13川崎生命科学・環境研究センター（LiSE）3階,神奈川県,川崎市,川崎区殿町,,,35.54082041,139.7542632,,,044-276-9001,,30sojig@city.kawasaki.jp,,,2100821,7000020141305,川崎市,月火水木金,8:30:00,17:15:00,休館日は土日、祝休日、年末年始（12/29〜1/3）,川崎市環境総合研究所は、市内の大気の常時監視・成分分析や、河川等の水質分析、気候変動影響の情報収集等を行い、市民のために環境課題を解決する研究を進め、国内外の都市や研究機関、優れた環境技術を有する市内企業等と連携し、川崎のフィールドを活かした環境の総合的な研究に取り組んでいます。また、川崎の環境対策の取り組みや優れた環境技術などについての情報の収集・発信のほか、市民を対象とした環境セミナーの開催や環境分野における国際貢献に向けた取り組みなども推進しています。,可,無,無,無,有,無,無,無,無,有,無,無,無,無,否,無,有,https://www.city.kawasaki.jp/kurashi/category/29-3-8-0-0-0-0-0-0-0.html,,,
141305,141305000045 ,神奈川県川崎市,浮島処理センター,ウキシマショリセンター,Kawasaki City Ukisima Waste to Energy Center,,2006,,,141313,,神奈川県川崎市川崎区浮島町509-1,神奈川県,川崎市,川崎区浮島町,,,35.51440246,139.783379,,,044-287-9600,,30ukisi@city.kawasaki.jp,,,2100862,7000020141305,川崎市,月火水木金土,8:30:00,17:15:00,休館日は日曜日、年末年始（1/1〜1/3）,浮島処理センターは、主に市南部のごみを処理する施設であり、粗大ごみ処理施設、特殊焼却施設を集合させた総合施設です。また、焼却に伴い発生する熱の再利用や、余剰電力を売電するとともに、公害防止等の面からも高度な設備を設けており、資源の再利用と環境保全に配慮した施設です。,可,有,無,有,有,無,有,可,無,有,有,有,無,無,否,無,可,http://www.city.kawasaki.jp/shisetsu/category/43-1-0-0-0-0-0-0-0-0.html,,,
141305,141305000046 ,神奈川県川崎市,橘処理センター,タチバナショリセンター,Kawasaki City Tachibana Waste to Energy Center,,2006,,,141348,,神奈川県川崎市高津区新作1-20-1,神奈川県,川崎市,高津区新作,,,35.58589911,139.6091107,,,044-865-0013,,30tatibana@city.kawasaki.jp,,,2130014,7000020141305,川崎市,月火水木金土,8:30:00,17:15:00,休館日は日曜日、年末年始（1/1〜1/3）,橘処理センターは、市中部のごみ処理の基幹的役割を担い、ごみの焼却に伴い発生する廃熱を利用した高効率発電設備を設け売電するとともに、公害防止等の面から厳しい管理値をクリアできる高度な設備を有し、低炭素社会の構築や環境保全に寄与する施設です。,可,有,無,有,有,有,有,可,無,有,有,有,無,有,否,無,可,http://www.city.kawasaki.jp/shisetsu/category/43-3-0-0-0-0-0-0-0-0.html,,,
141305,141305000047 ,神奈川県川崎市,王禅寺処理センター,オウゼンジショリセンター,Kawasaki City Ozenji Municipal Solid Waste Disposal Center,,2006,,,141372,,神奈川県川崎市麻生区王禅寺1285,神奈川県,川崎市,麻生区王禅寺,,,35.59115055,139.5247916,,,044-966-6135,,30ouzen@city.kawasaki.jp,,,2150013,7000020141305,川崎市,月火水木金土,8:30:00,17:15:00,休館日は日曜日、年末年始（1/1〜1/3）,王禅寺処理センターは、市北部のごみ処理の基幹的役割を担い、ごみの焼却に伴い発生する廃熱を利用した高効率発電設備を設け売電するとともに、公害防止等の面から厳しい管理値をクリアできる高度な設備を有し、脱炭素社会の構築や環境保全に寄与する施設です。,可,有,無,有,有,無,有,可,有,有,有,有,無,無,否,無,有,http://www.city.kawasaki.jp/shisetsu/category/43-4-0-0-0-0-0-0-0-0.html,,,
141305,141305000048 ,神奈川県川崎市,川崎生活環境事業所,カワサキセイカツカンキョウジギョウショ,,,2004,,,141313,,神奈川県川崎市川崎区塩浜4-11-9,神奈川県,川崎市,川崎区塩浜,,,35.53048735,139.749017,,,044-266-5747 ,,30kawase@city.kawasaki.jp,,,2100826,7000020141305,川崎市,月火水木金土,8:00:00,16:45:00,休館日は日曜日、年末年始（1/1〜1/3）,廃棄物の収集及び運搬、し尿の収集及び運搬並びに浄化槽の清掃、廃棄物の適正な排出の指導及び減量化・資源化の推進等を行っています。,可,有,無,有,エレベーター有,有,無,可,無,有,有,無,無,無,否,否,可,http://www.city.kawasaki.jp/300/soshiki/7-6-7-0-0.html,,,
141305,141305000049 ,神奈川県川崎市,中原生活環境事業所,ナカハラセイカツカンキョウジギョウショ,,,2004,,,141330,,神奈川県川崎市中原区中丸子155-1,神奈川県,川崎市,中原区中丸子,,,35.56993707,139.6620397,,,044-411-9220 ,,30nakase@city.kawasaki.jp,,,2110012,7000020141305,川崎市,月火水木金土,8:00:00,16:45:00,休館日は日曜日、年末年始（1/1〜1/3）,廃棄物の収集及び運搬、廃棄物の適正な排出の指導及び減量化・資源化の推進等を行っています。,可,無,無,有,スロープ有,無,無,可,無,可,無,無,無,無,否,無,可,http://www.city.kawasaki.jp/300/soshiki/7-12-0-0-0.html,,,
141305,141305000050 ,神奈川県川崎市,宮前生活環境事業所,ミヤマエセイカツカンキョウジギョウショ,,,2004,,,141364,,神奈川県川崎市宮前区宮崎172,神奈川県,川崎市,宮前区宮崎,,,35.59004366,139.5951831,,,044-866-9131 ,,30miyase@city.kawasaki.jp,,,2160033,7000020141305,川崎市,月火水木金土,8:00:00,16:45:00,休館日は日曜日、年末年始（1/1〜1/3）,廃棄物の収集及び運搬、し尿の収集及び運搬並びに浄化槽の清掃、廃棄物の適正な排出の指導及び減量化・資源化の推進等を行っています。,可,無,無,有,有,無,無,可,無,有,有,無,無,無,否,無,可,http://www.city.kawasaki.jp/300/soshiki/7-7-0-0-0.html,,,
141305,141305000051 ,神奈川県川崎市,多摩生活環境事業所,タマセイカツカンキョウジギョウショ,,,2004,,,141356,,神奈川県川崎市多摩区枡形1-14-1,神奈川県,川崎市,多摩区枡形,,,35.61993867,139.5528247,,,044-933-4111 ,,30tamase@city.kawasaki.jp,,,2140032,7000020141305,川崎市,月火水木金土,8:00:00,16:45:00,休館日は日曜日、年末年始（1/1〜1/3）,廃棄物の収集及び運搬、廃棄物の適正な排出の指導及び減量化・資源化の推進等を行っています。,可,無,無,有,スロープ有,無,無,有,無,有,有,無,無,無,否,無,有,http://www.city.kawasaki.jp/300/soshiki/7-10-0-0-0.html,,,
141305,141305000052 ,神奈川県川崎市,川崎市地球温暖化防止活動推進センター（ＣＣかわさき交流コーナー）,カワサキシチキュウオンダンカボウシカツドウスイシンセンター（シーシーカワサキコウリュウコーナー）,Kawasaki Center for Climate Change Actions,,1599,,,141348,,川崎市高津区溝口1-4-1ノクティ2　11階　高津市民館内,神奈川県,川崎市,高津区溝口,,,35.59903352,139.6128361,,,044-813-1313,,office@kwccca.com,,,2130001,7000020141305,川崎市,水木金土日,10:00:00,17:00:00,休館日は月火・年末年始(12/28-1/4),川崎市地球温暖化防止活動推進センターでは、地球温暖化対策に関する展示、講座の開催、相談・アドバイスなどを行っています。自ら地球温暖化防止活動を行うほか、地球温暖化防止活動の中間支援拠点として、地域の様々な活動団体と地球温暖化防止活動推進員を支援し、連携した活動を行っています。,可,有,無,有,有,有,無,可,有,有,有,有,有,有,可,無,可,https://www.cckawasaki.jp/kwccca/index.html,,,
141305,141305000053 ,神奈川県川崎市,かわさきエコ暮らし未来館,カワサキエコグラシミライカン,Kawasaki Eco Gurashi Mirai-kan（Kawasaki EcoLife museum For the Future）,,1010,,,141313,,川崎市川崎区浮島町509-1浮島処理センター内,神奈川県,川崎市,川崎区浮島町,,,35.51539297,139.7836384,,,044-223-8869,,ecokurashi-miraikan@os.tempstaff.jp,,,2100862,7000020141305,川崎市,火水木金土日,9:00:00,16:30:00,入場は16:00まで。休館日は月曜日、年末年始(12/28-1/3),地球温暖化、再生可能エネルギー、資源循環について、見て・聞いて・さわって楽しみながら体験する環境学習施設です。資源物を活用した工作などのミニ環境教室のほか、隣接する展望スペースからメガソーラー（浮島太陽光発電所）を見学できるガイドツアーも行っています。,可,有,無,有,スロープ、エレベーター有,有,無,可,有,有,有,有,無,無,可,無,可,https://eco-miraikan.jp/,,,
141305,141305000054 ,神奈川県川崎市,王禅寺エコ暮らし環境館,オウゼンジエコグラシカンキョウカン,Ozenji Eco Gurashi Kankyo-kan,エコ暮らし環境館,1010,,,141372,,川崎市麻生区王禅寺1285,神奈川県,川崎市,麻生区王禅寺,,,35.59251196,139.5248795,,,044-712-4637,,eco-kankyoukan@metawater.co.jp,,,2150013,7000020141305,川崎市,日月火木金土,09:00,16:30,入場は16:00まで。休館日は水曜日（水曜日が祝日の場合は翌平日が休館）、年末年始(12/28-1/3),王禅寺エコ暮らし環境館は資源循環や温暖化対策、自然共生について楽しく学ぶことができる施設です。コンピューターグラフィックスやタブレット端末を使ってゲームやクイズ形式で楽しく学べ、小学生の社会科見学にも活用されています。,可,有,無,有,有,有,無,可,有,有,有,有,無,有,可,無,可,https://www.eco-kankyoukan.jp/,https://www.eco-kankyoukan.jp/wp-content/uploads/2019/03/entrans.jpg,,
141305,141305000055 ,神奈川県川崎市,川崎市視覚障害者情報文化センター,カワサキシシカクショウガイシャジョウホウブンカセンター,,,1599,,,141313,,神奈川県川崎市川崎区堤根34-15ふれあいプラザかわさき3階,神奈川県,川崎市,川崎区堤根,,,35.52545712,139.692172,,,044‐222‐1611,,,,,2100026,,,,9:00:00,17:00:00,休館日は月曜日・祝日・月曜日にあたる祝日の翌日・年末年始・図書整理期間,川崎市内在住・在勤・在学の視覚障害者に対する点字図書と録音図書の貸出と、中途視覚障害者を対象にした各種相談・訓練を行うほか、便利グッズの常設展示と販売を行っています。また、音声解説付きDVD映画体験上映会、ヨガ教室、コンサートなどのイベントも定期的に開催しています。,可,無,無,有,有,有,有,可,無,可,無,"当センター内に無、
建物内に有",無,無,不可,無,可,http://www.kawasaki-icc.jp/,,,
141305,141305000056 ,神奈川県川崎市,川崎市総合福祉センター（エポックなかはら）,カワサキシソウゴウフクシセンター（エポックナカハラ）,,,1599,,,141330,,神奈川県川崎市中原区上小田中6-22-5,神奈川県,川崎市,中原区上小田中,,,35.58111315,139.6424072,,,044-722-0185,,,,,2110053,,,,9:00:00,21:30:00,休館日は年末年始（12/29〜1/3）、設備点検日,福祉に関する情報の収集及び提供を行うとともに、市民による福祉活動を支援することにより、市民の主体的な活動による地域福祉の推進を図ることを目的とした施設,,,,,,,,,,,,,,,,,,https://sfc-kawasaki.jp/,,,
141305,141305000057 ,神奈川県川崎市,かわさき健康づくりセンター,カワサキケンコウヅクリセンター,,,1199,,,141313,,神奈川県川崎市川崎区渡田新町3-2-1,神奈川県,川崎市,川崎区渡田新町,,,35.52091354,139.6960111,,,044-333-3741,,,,,2100844,,,,9:00:00,20:30:00,利用可能時間は9:00〜20:30、9:00〜16:30（日曜、祝日）。休館日は月曜日（祝日の場合は開館）、年末年始（12月28日〜1月4日）,市民のみなさまの生涯にわたる健康づくりを支援する施設です。とくに、生活習慣病の予防・改善や介護予防、中高年の健康づくりを運動と栄養の両面から支援します。また、健康に関する情報提供や、運動・研修施設の貸出などを行います。,可,有,無,有,有,有,無,有,無,無,有,有,有,有,一部可,無,有,http://www.city.kawasaki.jp/350/page/0000021943.html,,,
141305,141305000058 ,神奈川県川崎市,川崎市看護大学,カワサキシカンゴダイガク（カワサキシカンゴタンキダイガク）,,,1506,,,141321,,神奈川県川崎市幸区小倉4-30-1,神奈川県,川崎市,幸区小倉,,,35.53580927,139.66982,,,044-587-3500,,,,,2120054,,,,8:30:00,20:30:00,利用可能時間は8：30〜20：30。ただし、教職員は業務の都合上6:30〜22:30。年末年始（12/29〜1/3）は休館。,『医療機関はもとより地域の様々な場で活躍することができ、地域包括ケアシステムに資する人材』の養成を目指し四年制大学として開学しました。なお市立看護短期大学は、大学の開学により令和６年３月末をもって閉学しました。,,,,,,,,,,,,,,,,,,https://www.kawasaki-cn.ac.jp/,,,
141305,141305000059 ,神奈川県川崎市,川崎市総合リハビリテーション推進センター,カワサキシソウゴウリハビリテーションスイシンセンター ,Kawasaki City Inclusive Rehabilitation Center,ふくふく,1613,,,141313,,神奈川県川崎市川崎区日進町5-1川崎市複合福祉センター「ふくふく」2階,神奈川県,川崎市,川崎区日進町,,,35.52965615,139.7038596,,,044-223-6719,,,,,2100024,,,平日,8:30:00,17:15:00,休館日は土日、祝休日、年末年始（12/29〜1/3）,"総合リハビリテーション推進センターは、障害者更生相談所と精神保健福祉センターの機能を中核としつつ、高齢者や障害児も含めたサービスの質の向上やネットワーク化を推進する機関として位置づけている保健医療福祉に関する地域資源の全市的な連携拠点です。具体的な役割として、地域リハビリテーションセンターの統括を行うとともに、民間の施設・事業者も含めた全市的なサービスの質の向上を図るため、保健医療福祉サービスに関する調査研究・連携調整・人材育成を推進します。なお、人材育成については、併設する総合研修センターと共同で取組を展開します。
",可,不可,不可,有,有,有,無,可,,可,有,有,有,有,有,無,可,https://www.city.kawasaki.jp/350/page/0000128351.html,,,
141305,141305000060 ,神奈川県川崎市,南部地域支援室,ナンブチイキシエンシツ,,,1406,,,141313,,神奈川県川崎市川崎区日進町5-1川崎市複合福祉センター「ふくふく」2階,神奈川県,川崎市,川崎区日進町,,,35.52965615,139.7038596,,,044-200-0834,,,,,2100024,,,8:30~17:00,8:30:00,17:00:00,休館日は土日、祝休日、年末年始（12/29〜1/3）,障害者更生相談所及び精神保健福祉センターの機能を有し、身体・知的・精神などの障害のある方を対象とした専門的な相談機関です。川崎区・幸区を担当しています。聴覚障害に関しては、全市を担当しています。,,,,,,,,,,,,,,,,,,https://www.city.kawasaki.jp/350/page/0000128351.html,,,
141305,141305000061 ,神奈川県川崎市,中部地域支援室,チュウブチイキシエンシツ,,,1406,,,141330,,神奈川県川崎市中原区井田3-16-1中部リハビリテーションセンター内,神奈川県,川崎市,中原区井田,,,35.56267088,139.6359257,,,044-750-0686,,40rityubu@city.kawasaki.jp,https://www.city.kawasaki.jp/350/page/0000127688.html,,2110035,,,月火水木金,8:30:00,17:15:00,休館日は土日、祝休日、年末年始（12/29〜1/3）,障害者更生相談所及び精神保健福祉センターの機能を有し、身体・知的・精神など障害のある方を対象とした専門的な相談機関です。中原区・高津区・宮前区を担当します。,可,可,,有,有,無,無,有,無,有,有,有,無,有,可,無,可,https://www.city.kawasaki.jp/350/page/0000127688.html,,,
141305,141305000062 ,神奈川県川崎市,北部地域支援室,ホクブチイキシエンシツ,,,1406,,,141372,,神奈川県川崎市麻生区百合丘2-8-2北部リハビリテーションセンター内,神奈川県,川崎市,麻生区百合丘,,,35.60283262,139.5155586,,,044-281-6621　　　,,,,,2150011,,,月〜金,8:30:00,17:00:00,休館日は土日、祝休日、年末年始（12/29〜1/3）,障害者更生相談所及び精神保健福祉センターの機能を有し、身体・知的・精神など障害のある方を対象とした専門的な相談機関です。多摩区・麻生区を担当します。,可,,,有,有,有,有,可,,可,有,有,,,,無,可,https://www.city.kawasaki.jp/350/page/0000128349.html,,,
141305,141305000063 ,神奈川県川崎市,福祉パルかわさき,フクシパルカワサキ,hukushiparu kawasaki,,1499,,,141313,,神奈川県川崎市川崎区富士見1-6-3読売川崎富士見ビルB1棟6階,神奈川県,川崎市,川崎区富士見,,,35.5304681,139.7115883,,,044-246-5500,,,,,2100011,8020005007502,,,8:30:00,17:00:00,利用可能時間は8:30〜17:00、8:30〜21:00（火、木）※第1、第3日曜日は事前申込。休館日は第2・第4・第5日曜日、祝日、年末年始（12/29〜1/3）。,ボランティアや地域で福祉活動をされている方々に活動や交流の場を提供します。お年寄りや障害をお持ちの方、福祉活動に関心のある方、福祉について知りたいと思っている市民の方々の相談に応じ、福祉情報を提供します。各種福祉講座や研修を開催します。,可,可,,可,可,,,,,可,,,,,,,可,http://www.city.kawasaki.jp/350/page/0000022053.html,,,
141305,141305000064 ,神奈川県川崎市,福祉パルさいわい,フクシパルサイワイ,hukushiparu saiwai,,1499,,,141321,,神奈川県川崎市幸区戸手本町1-11-5さいわい健康福祉プラザ内,神奈川県,川崎市,幸区戸手本町,,,35.5438278,139.6868104,,,044-556-5500,,,,,2120023,8020005007502,,,8:30:00,17:00:00,利用可能時間は8:30〜17:00、8:30〜21:00（火、金）※第1、第3日曜日は事前申込。休館日は第2・第4・第5日曜日、祝日、年末年始（12/29〜1/3）。,ボランティアや地域で福祉活動をされている方々に活動や交流の場を提供します。お年寄りや障害をお持ちの方、福祉活動に関心のある方、福祉について知りたいと思っている市民の方々の相談に応じ、福祉情報を提供します。各種福祉講座や研修を開催します。,可,可,,可,可,,,,,可,可,,,,,,可,http://www.city.kawasaki.jp/350/page/0000022061.html,,,
141305,141305000065 ,神奈川県川崎市,福祉パルなかはら,フクシパルナカハラ,hukushiparu nakahara,,1499,,,141330,,神奈川県川崎市中原区今井上町1-34和田ビル1階,神奈川県,川崎市,中原区今井上町,,,35.57692128,139.653608,,,044-722-5500,,,,,2110067,8020005007502,,,8:30:00,17:00:00,利用可能時間は8:30〜17:00、8:30〜21:00（火、木）※第1、第3日曜日は事前申込。休館日は第2・第4・第5日曜日、祝日、年末年始（12/29〜1/3）。,ボランティアや地域で福祉活動をされている方々に活動や交流の場を提供します。お年寄りや障害をお持ちの方、福祉活動に関心のある方、福祉について知りたいと思っている市民の方々の相談に応じ、福祉情報を提供します。各種福祉講座や研修を開催します。,可,可,,可,可,,,,,可,可,,,,,,可,http://www.city.kawasaki.jp/350/page/0000022067.html,,,
141305,141305000066 ,神奈川県川崎市,福祉パルたかつ,フクシパルタカツ,hukushiparu takatsu,,1499,,,141348,,神奈川県川崎市高津区溝口1-6-10てくのかわさき3階,神奈川県,川崎市,高津区溝口,,,35.59879668,139.6140075,,,044-812-5500,,,,,2130001,8020005007502,,,8:30:00,17:00:00,利用可能時間は8:30〜17:00、8:30〜21:00（火、木）※第1、第3日曜日は事前申込。休館日は第2・第4・第5日曜日、祝日、年末年始（12/29〜1/3）。,ボランティアや地域で福祉活動をされている方々に活動や交流の場を提供します。お年寄りや障害をお持ちの方、福祉活動に関心のある方、福祉について知りたいと思っている市民の方々の相談に応じ、福祉情報を提供します。各種福祉講座や研修を開催します。,可,可,,可,可,,,,,可,可,,,,,,可,http://www.city.kawasaki.jp/350/page/0000022070.html,,,
141305,141305000067 ,神奈川県川崎市,福祉パルみやまえ,フクシパルミヤマエ,hukushiparu miyamae,,1499,,,141364,,神奈川県川崎市宮前区宮崎2-6-10宮崎台ガーデンオフィス4階,神奈川県,川崎市,宮前区宮崎,,,35.58789521,139.5891441,,,044-856-5500,,,,,2160033,8020005007502,,,8:30:00,17:00:00,利用可能時間は8:30〜17:00、8:30〜21:00（火、金）※第1、第3日曜日は事前申込。休館日は第2・第4・第5日曜日、祝日、年末年始（12/29〜1/3）。,ボランティアや地域で福祉活動をされている方々に活動や交流の場を提供します。お年寄りや障害をお持ちの方、福祉活動に関心のある方、福祉について知りたいと思っている市民の方々の相談に応じ、福祉情報を提供します。各種福祉講座や研修を開催します。,可,可,,可,可,,,,,可,,,,,,,可,http://www.city.kawasaki.jp/350/page/0000022072.html,,,
141305,141305000068 ,神奈川県川崎市,福祉パルたま,フクシパルタマ,hukushiparu tama,,1499,,,141356,,神奈川県川崎市多摩区登戸1891第3井出ビル３階,神奈川県,川崎市,多摩区登戸,,,35.61992657,139.5607428,,,044-935-5500,,,,,2140014,8020005007502,,,8:30:00,17:00:00,利用可能時間は8:30〜17:00、8:30〜21:00（火、木）※第1、第3日曜日は事前申込。休館日は第2・第4・第5日曜日、祝日、年末年始（12/29〜1/3）。,ボランティアや地域で福祉活動をされている方々に活動や交流の場を提供します。お年寄りや障害をお持ちの方、福祉活動に関心のある方、福祉について知りたいと思っている市民の方々の相談に応じ、福祉情報を提供します。各種福祉講座や研修を開催します。,可,可,,可,可,,,,,可,,,,,,,可,http://www.city.kawasaki.jp/350/page/0000022075.html,,,
141305,141305000069 ,神奈川県川崎市,福祉パルあさお,フクシパルアサオ,hukushiparu asao,,1499,,,141372,,神奈川県川崎市麻生区万福寺1-2-2新百合トゥェンティワン1階,神奈川県,川崎市,麻生区万福寺,,,35.60297707,139.505905,,,044-952-5500,,,,,2150004,8020005007502,,,8:30:00,17:00:00,利用可能時間は8:30〜17:00、8:30〜21:00（火、木）※第1、第3日曜日は事前申込。休館日は第2・第4・第5日曜日、祝日、年末年始（12/29〜1/3）。,ボランティアや地域で福祉活動をされている方々に活動や交流の場を提供します。お年寄りや障害をお持ちの方、福祉活動に関心のある方、福祉について知りたいと思っている市民の方々の相談に応じ、福祉情報を提供します。各種福祉講座や研修を開催します。,可,可,,可,可,,,,,可,可,,,,,,可,http://www.city.kawasaki.jp/350/page/0000022080.html,,,
141305,141305000070 ,神奈川県川崎市,川崎休日急患診療所,カワサキキュウジツキュウカンシンリョウジョ,,,1602,,,141313,,神奈川県川崎市川崎区富士見1-1-1,神奈川県,川崎市,川崎区富士見,,,35.52942674,139.7073506,,,044-211-6555,,,,,2100011,,,,,,利用可能時間は9:00〜11:30（午前）、13:00〜16:00（午後）。休館日は平日（日曜・祝日・年末年始（12月30日〜1月3日）以外の日）。,軽症患者を対象とした初期診療を行っています。専門的な治療が必要な場合は、別の医療機関を紹介することがあります。診療科目：内科・小児科　診療日：日曜・祝日・年末年始（12月30日〜1月3日）,,有,無,有,エレベーター有,一部有,,,,,無,無,無,無,,無,,http://www.city.kawasaki.jp/350/page/0000021971.html,,,川崎市医師会が管理運営する施設となりますので、診療内容や診療所における対応など、当診療所に関する御意見やお問い合わせは同医師会（044-711-3011）へお願いします。※施設の財産上の所有者は川崎市です。
141305,141305000071 ,神奈川県川崎市,幸休日急患診療所,サイワイキュウジツキュウカンシンリョウジョ,,,1602,,,141321,,神奈川県川崎市幸区戸手2-12-12,神奈川県,川崎市,幸区戸手,,,35.54403254,139.692667,,,044-555-0885,,,,,2120005,,,,,,利用可能時間は9:00〜11:30（午前）、13:00〜16:00（午後）。休館日は平日（日曜・祝日・年末年始（12月30日〜1月3日）以外の日）。,軽症患者を対象とした初期診療を行っています。専門的な治療が必要な場合は、別の医療機関を紹介することがあります。診療科目：内科・小児科診療日：日曜・祝日・年末年始（12月30日〜1月3日）,,有,無,有,,無,,,,,無,無,無,無,,無,,http://www.city.kawasaki.jp/350/page/0000021982.html,,,川崎市医師会が管理運営する施設となりますので、診療内容や診療所における対応など、当診療所に関する御意見やお問い合わせは同医師会（044-711-3011）へお願いします。※施設の財産上の所有者は川崎市です。
141305,141305000072 ,神奈川県川崎市,中原休日急患診療所,ナカハラキュウジツキュウカンシンリョウジョ,,,1602,,,141330,,神奈川県川崎市中原区小杉町3-26-7医師会館2階,神奈川県,川崎市,中原区小杉町,,,35.57584287,139.6547576,,,044-722-7870,,,,,2110063,,,,,,利用可能時間は9:00〜11:30（午前）、13:00〜16:00（午後）。休館日は平日（日曜・祝日・年末年始（12月30日〜1月3日）以外の日）。,軽症患者を対象とした初期診療を行っています。専門的な治療が必要な場合は、別の医療機関を紹介することがあります。診療科目：内科・小児科、診療日：日曜・祝日・年末年始（12月30日〜1月3日）,,有,無,有,,,,,,,,,,,,,,http://www.city.kawasaki.jp/350/page/0000021986.html,,,公益社団法人川崎市医師会が管理運営する施設であるため、駐車場を含むアクセス情報やバリアフリー情報等、施設の詳細については川崎市医師会へお問い合わせください。
141305,141305000073 ,神奈川県川崎市,高津休日急患診療所,タカツキュウジツキュウカンシンリョウジョ,,,1602,,,141348,,神奈川県川崎市高津区溝口5-15-5,神奈川県,川崎市,高津区溝口,,,35.60760855,139.6140854,,,044-811-9300,,,,,2130001,,,,,,利用可能時間は9:00〜11:30（午前）、13:00〜16:00（午後）。休館日は平日（日曜・祝日・年末年始（12月30日〜1月3日）以外の日）。,軽症患者を対象とした初期診療を行っています。専門的な治療が必要な場合は、別の医療機関を紹介することがあります。診療科目：内科・小児科、診療日：日曜・祝日・年末年始（12月30日〜1月3日）,,有,無,有,,無,,,,,無,無,無,無,,無,,http://www.city.kawasaki.jp/350/page/0000021992.html,,,川崎市医師会が管理運営する施設となりますので、診療内容や診療所における対応など、当診療所に関する御意見やお問い合わせは同医師会（044-711-3011）へお願いします。※施設の財産上の所有者は川崎市です。
141305,141305000074 ,神奈川県川崎市,宮前休日急患診療所,ミヤマエキュウジツキュウカンシンリョウジョ,,,1602,,,141364,,神奈川県川崎市宮前区東有馬2-13-3,神奈川県,川崎市,宮前区東有馬,,,35.57701745,139.59477,,,044-853-2133,,,,,2160002,,,,,,利用可能時間は9:00〜11:30（午前）、13:00〜16:00（午後）。休館日は平日（日曜・祝日・年末年始（12月30日〜1月3日）以外の日）。,軽症患者を対象とした初期診療を行っています。専門的な治療が必要な場合は、別の医療機関を紹介することがあります。診療科目：内科・小児科、診療日：日曜・祝日・年末年始（12月30日〜1月3日）,,有,無,有,,無,,,,,無,無,無,無,,無,,http://www.city.kawasaki.jp/350/page/0000021998.html,,,川崎市医師会が管理運営する施設となりますので、診療内容や診療所における対応など、当診療所に関する御意見やお問い合わせは同医師会（044-711-3011）へお願いします。※施設の財産上の所有者は川崎市です。
141305,141305000075 ,神奈川県川崎市,多摩休日夜間急患診療所,タマキュウジツヤカンキュウカンシンリョウジョ,,,1602,,,141356,,神奈川県川崎市多摩区登戸1775-1,神奈川県,川崎市,多摩区登戸,,,35.61952277,139.5621026,,,044-933-1120,,,,,2140014,,,,,,利用可能時間は9:00〜11:30（午前）、13:00〜16:00（午後）。休館日は平日（日曜・祝日・年末年始（12月30日〜1月3日）以外の日）。,軽症患者を対象とした初期診療を行っています。専門的な治療が必要な場合は、別の医療機関を紹介することがあります。診療科目：内科・小児科、診療日：日曜・祝日・年末年始（12月30日〜1月3日）※内科は毎夜間の診療も行っています。,,有,無,有,,一部有,,,,,無,無,無,無,,無,,http://www.city.kawasaki.jp/350/page/0000022003.html,,,川崎市医師会が管理運営する施設となりますので、診療内容や診療所における対応など、当診療所に関する御意見やお問い合わせは同医師会（044-711-3011）へお願いします。※施設の財産上の所有者は川崎市です。
141305,141305000076 ,神奈川県川崎市,麻生休日急患診療所,アサオキュウジツキュウカンシンリョウジョ,,,1602,,,141372,,神奈川県川崎市麻生区万福寺1-5-3,神奈川県,川崎市,麻生区万福寺,,,35.604806,139.5056665,,,044-966-2133,,,,,2150004,,,,,,利用可能時間は9:00〜11:30（午前）、13:00〜16:00（午後）。休館日は平日（日曜・祝日・年末年始（12月30日〜1月3日）以外の日）。,軽症患者を対象とした初期診療を行っています。専門的な治療が必要な場合は、別の医療機関を紹介することがあります。診療科目：内科・小児科、診療日：日曜・祝日・年末年始（12月30日〜1月3日）,,有,無,有,エレベーター有,一部有,,,,,無,無,無,無,,無,,http://www.city.kawasaki.jp/350/page/0000022013.html,,,川崎市医師会が管理運営する施設となりますので、診療内容や診療所における対応など、当診療所に関する御意見やお問い合わせは同医師会（044-711-3011）へお願いします。※施設の財産上の所有者は川崎市です。
141305,141305000077 ,神奈川県川崎市,川崎市南部小児急病センター,カワサキシナンブショウニキュウビョウセンター,,,1602,,,141313,,神奈川県川崎市川崎区新川通12-1川崎立川崎病院内,神奈川県,川崎市,川崎区新川通,,,35.52664785,139.7060102,,,044-233-5521,,,,,2100013,,,,,,利用可能時間は17:00〜翌8:30（毎夜間）※土曜、日曜、祝日、年末年始は、24時間対応。休館日無し。,軽症患者を対象とした初期診療を行っています。専門的な治療が必要な場合は、別の医療機関を紹介することがあります。診療科目：小児科、診療日：毎夜間※診察を希望される場合、来院前に電話連絡してください。,,,,,,,,,,,,,,,,,,"http://www.city.kawasaki.jp/350/page/0000021976.html
http://www.city.kawasaki.jp/32/cmsfiles/contents/0000037/37856/kawasaki/shinryou/syouni/syounikyukyu.html",,,市立川崎病院（病院局）が管理運営する施設であるため、駐車場を含むアクセス情報やバリアフリー情報等、施設の詳細については同病院へお問い合わせください。
141305,141305000078 ,神奈川県川崎市,川崎市中部小児急病センター,カワサキシチュウブショウニキュウビョウセンター,,,1602,,,141330,,神奈川県川崎市中原区小杉町1-396383日本医科大学武蔵小杉病院内,神奈川県,川崎市,中原区小杉町,,,"35.57936312

35.580507","139.6580436

139.658000",,,044-733-5181,,,,,"2110063
2118533",,,,18:30:00,23:00:00,休館日無し。,軽症患者を対象とした初期診療を行っています。専門的な治療が必要な場合は、別の医療機関を紹介することがあります。診療科目：小児科、診療日：毎夜間,,,,,,,,,,,,,,,,,,"http://www.city.kawasaki.jp/350/page/0000047045.html
https://www.nms.ac.jp/kosugi-h/info/pediatrics-center.html",,,日本医科大学武蔵小杉病院が管理運営する施設であるため、駐車場を含むアクセス情報やバリアフリー情報等、施設の詳細については同病院へお問い合わせください。
141305,141305000079 ,神奈川県川崎市,川崎市北部小児急病センター,カワサキシホクブショウニキュウビョウセンター,,,1602,,,141356,,神奈川県川崎市多摩区登戸1775-1,神奈川県,川崎市,多摩区登戸,,,35.61952277,139.5621026,,,044-933-1120,,,,,2140014,,,,18:30:00,5:30:00,休館日無し。,軽症患者を対象とした初期診療を行っています。専門的な治療が必要な場合は、別の医療機関を紹介することがあります。診療科目：小児科、診療日：毎夜間,,有,無,有,,一部有,,,,,無,無,無,無,,無,,http://www.city.kawasaki.jp/350/page/0000022008.html,,,川崎市医師会が管理運営する施設となりますので、診療内容や診療所における対応など、当診療所に関する御意見やお問い合わせは同医師会（044-711-3011）へお願いします。※施設の財産上の所有者は川崎市です。
141305,141305000080 ,神奈川県川崎市,川崎・横浜公害保健センター,カワサキ・ヨコハマコウガイホケンセンター,,,1613,,,141313,,神奈川県川崎市川崎区日進町23,神奈川県,川崎市,川崎区日進町,,,35.52380254,139.6947085,,,044-211-0311,,,,,2100024,,,,8:30:00,17:00:00,休館日は土日、祝日,川崎市及び横浜市の認定した公害健康被害者の健康の回復及び福祉の向上を図るとともに広く川崎・横浜両市民の大気汚染に係る健康被害の予防に寄与することを目的として設立された専門施設です。（事業内容）公害病被認定者に対する医学的検査、呼吸器機能訓練、機能回復訓練等、川崎市及び横浜市の市民に対する閉そく性呼吸器疾患等の相談等。,可,無,無,有,エレベータのみ,無,無,無,無,無,無,無,無,無,否,無,無,http://www.city.kawasaki.jp/350/page/0000021832.html,,,
141305,141305000081 ,神奈川県川崎市,川崎市ナーシングセンター,カワサキシナーシングセンター,,,1613,,,141330,,神奈川県川崎市中原区今井上町1-34,神奈川県,川崎市,中原区今井上町,,,35.57690028,139.6534915,,,044-711-3995,,,,,2110067,,,,9:30:00,16:30:00,休館日は土日、祝日、年末年始（12/29〜1/3）,川崎市ナーシングセンターは、保健師、助産師、看護師及び准看護師の資質の向上、就業の促進等を図る看護活動の総合拠点施設として設置されています。そして、看護職の人材確保や質の良い看護を提供するための研修、保健・医療・福祉等のさまざまな活動の場の交流会等を開催しています。また、市民のみなさまには、健康相談、介護相談、健康教室等を通じて、健康な暮らしを支援します。,可,可,無,"多目的トイレは1階にあり。
（ナーシングセンターは3階）",EV有,無,無,無,無,無,無,無,無,無,不可,無,可,http://www.city.kawasaki.jp/350/page/0000021949.html,,,多目的トイレは1階にあり。（ナーシングセンターは3階）
141305,141305000082 ,神奈川県川崎市,川崎市動物愛護センター,カワサキシドウブツアイゴセンター,Animal Protection Center,（ANIMAMALL（アニマモール）かわさき）,1609,,,141330,,神奈川県川崎市中原区上平間1700-8,神奈川県,川崎市,中原区上平間,,,35.55598536,139.673494,,,044-589-7137,,40dobutu@city.kawasaki.jp,,,2110013,7000020141305,川崎市,日月火水木,8:30:00,17:15:00,祝日、年末年始（12/29〜1/3）は休館。※日曜日が祝日のときは開館,動物の愛護及び管理に関する法律に規定する動物愛護管理センターとして、迷子の犬や負傷した犬・猫の保護・返還などを行うとともに、収容保護した動物たちを新しい家族に譲り渡すこと、また、「いのち・MIRAI教室」をはじめとする動物の愛護及び管理に関する啓発活動等を行う。,可,可,無,有,有,有,無,有,無,有,有,有,有,有,否,無,有,"https://www.city.kawasaki.jp/shisetsu/category/39-2-0-0-0-0-0-0-0-0.html
",,,
141305,141305000083 ,神奈川県川崎市,川崎市中央卸売市場食品衛生検査所,カワサキシチュウオウオロシウリシジョウショクヒンエイセイケンサジョ,,,4007,,,141364,,神奈川県川崎市宮前区水沢1-1-1,神奈川県,川崎市,宮前区水沢,,,35.59109841,139.54955,,,044-975-2245,,,,,2160012,,,,8:30:00,17:15:00,休館日は日曜日及び祝祭日（開市日を除く）。開市日・休市日については、川崎市中央卸売市場北部市場ホームページ等を参照,市場内食品等事業者及び市場内流通食品を対象に、監視指導と衛生検査を行っています。 ,可,有,無,有,"スロープ、エレベータ有
エスカレータ無",無,無,無,無,有,有,無,無,有,否,無,有,"https://www.city.kawasaki.jp/shisetsu/category/46-1-0-0-0-0-0-0-0-0.html
",,,貸出は経済労働局中央卸売市場北部市場管理課所管の物を含みます。
141305,141305000084 ,神奈川県川崎市,川崎市健康安全研究所,カワサキシケンコウアンゼンケンキュウショ,,,1513,,,141313,,神奈川県川崎市川崎区殿町3-25-13川崎生命科学・環境研究センター（LiSE）2階,神奈川県,川崎市,川崎区殿町,,,35.54082041,139.7542632,,,044-276-8250,,,,,2100821,,,,,,,健康安全研究所は、試験検査、調査研究、研修指導、情報発信の4つの柱を通じて、感染症や食中毒等の健康危機発生時のみならず平常時から、常に健康危機課題の解決に寄与する業務・研究を実施し、市民の健康をサポートしています。,可,無,無,有,有,無,無,無,無,無,無,有,無,無,可,無,無,http://www.city.kawasaki.jp/kurashi/category/22-13-8-9-0-0-0-0-0-0.html,,,バリアフリートイレ、オストメイト対応トイレは１階及び４階に有
141305,141305000085 ,神奈川県川崎市,かわさき北部斎苑,カワサキホクブサイエン,Kawasaki Northern Crematorium,北部斎苑,2009,,,141348,,神奈川県川崎市高津区下作延6-18-1,神奈川県,川崎市,高津区下作延,,,35.60729499,139.6001347,,,044-822-3171,,,,,2130033,,川崎市,友引日以外,09:00,22:00,利用可能時間は9:00〜17:00（火葬施設）、9:00〜22:00（斎場）。休館日は1月1日及び友引日（火葬施設）、1月1日（斎場）。,かわさき北部斎苑では、火葬業務及び斎場(式場)の貸出しを行っています。,可,可,無,有,有,有,無,可,無,無,有,有,有,有,可,無,可,http://www.city.kawasaki.jp/350/page/0000016725.html,https://www.city.kawasaki.jp/350/cmsfiles/contents/0000016/16725/gaikan.jpg,,
141305,141305000086 ,神奈川県川崎市,かわさき南部斎苑,カワサキナンブサイエン,Kawasaki Southern Crematorium,南部斎苑,2009,,,141313,,神奈川県川崎市川崎区夜光3-2-7,神奈川県,川崎市,川崎区夜光,,,35.51688795,139.7393064,,,044-277-8146,,,,,2100863,,川崎市,友引日以外,09:00,22:00,利用可能時間は9:00〜17:00（火葬施設）、9:00〜22:00（斎場）。休館日は1月1日及び友引日（火葬施設）、1月1日（斎場）。,かわさき南部斎苑では、火葬業務及び斎場(式場)の貸出しを行っています。,可,可,無,有,有,有,無,可,無,無,有,有,無,有,可,無,可,http://www.city.kawasaki.jp/shisetsu/category/55-3-0-0-0-0-0-0-0-0.html,https://www.city.kawasaki.jp/350/cmsfiles/contents/0000016/16691/syoumengenkan(nanbu).jpg,,
141305,141305000087 ,神奈川県川崎市,教育文化会館,キョウイクブンカカイカン,,,1305,,,141313,,神奈川県川崎市川崎区富士見2-1-3,神奈川県,川崎市,川崎区富士見,,,35.52879235,139.7077861,,,044-233-6361,,,,,2100011,,,,9:00:00,21:30:00,休館は第3月曜日（休日に当たる場合はその直後の休日でない日）、年末年始（12/29〜1/3）、設備点検日,教育文化会館は、市民のみなさまに生涯学習活動の場を提供し、市民の教養の向上や文化の振興、健康の増進を図るため、川崎市教育文化会館条例に基づき設置された社会教育施設です。,,,,,,,,,,,,,,,,,,http://www.city.kawasaki.jp/kawasaki/category/94-11-1-0-0-0-0-0-0-0.html,,,・平成30年3月31日をもちまして教育文化会館「大ホール」は閉鎖いたしました。なお、大ホール以外の施設（会議室等）につきましては、今後も御利用いただけますので、引き続き、よろしくお願い申し上げます。
141305,141305000088 ,神奈川県川崎市,教育文化会館大師分館,キョウイクブンカカイカンダイシブンカン,,プラザ大師,1305,,,141313,,神奈川県川崎市川崎区大師駅前1-1-5川崎大師パーク・ホームズ２階,神奈川県,川崎市,川崎区大師駅前,,,35.534118,139.7253884,,,044−266-3550,,,,,2100802,,,,,,利用可能時間は図書館10:00〜18:00（平日）、10:00〜17:00（土日、祝日）、市民館9：00〜21：00。休館は第3月曜日（休日に当たる場合はその直後の休日でない日）、年末年始（12/29〜1/3）、設備点検日。,大師分館は、貸館のほか、学級や講座などの社会教育振興事業を開催する教育文化会館大師分館（市民館）と本や雑誌などを利用者に提供するほか、おはなし会を開催する川崎図書館大師分館（図書館）が一緒になった社会教育施設です。,,,,,,,,,,,,,,,,,,http://www.city.kawasaki.jp/kawasaki/category/94-11-2-1-0-0-0-0-0-0.html,,,
141305,141305000089 ,神奈川県川崎市,教育文化会館田島分館,キョウイクブンカカイカンタジマブンカン,,プラザ田島,1305,,,141313,,神奈川県川崎市川崎区追分町　16-1　カルナーザ川崎4階,神奈川県,川崎市,川崎区追分町　,,,35.51911545,139.7164683,,,044-333-9120,,,,,2100835,,,,,,利用可能時間は図書館10:00〜18:00（平日）、10:00〜17:00（土日、祝日）、市民館9：00〜21：00。休館は第3月曜日（休日に当たる場合はその直後の休日でない日）、年末年始（12/29〜1/3）、設備点検日。,田島分館は、貸館のほか、学級や講座などの社会教育振興事業を開催する教育文化会館田島分館（市民館）と本や雑誌などを利用者に提供するほか、おはなし会を開催する川崎図書館田島分館（図書館）が一緒になった社会教育施設です。,,,,,,,,,,,,,,,,,,http://www.city.kawasaki.jp/kawasaki/category/94-11-3-2-0-0-0-0-0-0.html,,,
141305,141305000090 ,神奈川県川崎市,東海道かわさき宿交流館,トウカイドウカワサキシュクコウリュウカン,,,803,,,141313,,神奈川県川崎市川崎区本町1-8-4,神奈川県,川崎市,川崎区本町,,,35.53250389,139.7028978,,,044-280-7321,,,,,2100001,,,火水木金土日,9:00:00,17:00:00,休館日は月曜（月曜日が、祝日にあたるときは開館し、その直後の休日でない日を休館とする。）、年末年始（12/29〜1/3）,川崎宿の歴史・文化を学び、それを後世に伝え、地域活動。地域交流の拠点となることを目指した施設です。休憩・交流スペース、展示室のほか、地域や市民相互の交流の場として利用できるよう集会室を貸出しています。,可,有,無,有,エレベーター有,"階段、エレベーター前
など一部あり",有,可,無,有,無,有,有,有,一部可,無,可,http://kawasakishuku.jp/,,,
141305,141305000091 ,神奈川県川崎市,川崎区役所,カワサキクヤクショ,Kawasaki Ward Office,川崎区役所,1303,,,141313,,神奈川県川崎市川崎区東田町8,神奈川県,川崎市,川崎区東田町,,,35.52965615,139.7038596,,,044-201-3113,,,,,2108570,,,月火水木金土,8:30:00,17:00:00,利用可能時間は8:30〜17:00（平日）、8:30〜12:30（第２、４土曜日）。休館は第2・4土曜日を除く土日祝日、年末年始（12/29〜1/3）,総合的な行政サービスの提供拠点として、以下の業務を取り扱っています。（主な取扱業務）(1)戸籍、住民基本台帳等の手続き及び証明書発行(2)国民健康保険、国民年金等に関する手続き(3)医療、保健等に関する手続き・相談(4)生活保護、児童、母子・父子、障害者、高齢者等の福祉に関する手続き・相談(5)地域住民組織の振興、市民活動支援、生涯学習支援(6)防災、防犯(7)選挙、統計,可,有,無,無,有,有,無,有,無,有,,有,有,無,否,無,有,http://www.city.kawasaki.jp/kawasaki/index.html,,,
141305,141305000092 ,神奈川県川崎市,川崎区役所大師支所,カワサキクヤクショダイシシショ,,,1304,,,141313,,神奈川県川崎市川崎区台町26-7,神奈川県,川崎市,川崎区台町,,,35.5320164,139.7339842,,,044-271-0130,,,,,2100814,,,月火水木金,8:30:00,17:00:00,休館日は土日、祝休日、年末年始（12/29〜1/3）,"川崎区にある2 か所の支所は、主に所管する区域に住所のある市民を対象に業務を行っています。（支所の主な取扱業務）(1)戸籍、住民基本台帳等の手続き及び証明書発行(2)地域住民組織の振興、市民活動支援(3)防災、防犯(4)選挙、統計
",可,有,無,有,有,有,有,有,無,有,有,有,有,有,否,無,有,http://www.city.kawasaki.jp/kawasaki/page/0000035904.html,,,
141305,141305000093 ,神奈川県川崎市,川崎区役所田島支所,カワサキクヤクショタジマシショ,Tajima Branch Office,,1304,,,141313,,神奈川県川崎市川崎区田島町20-23,神奈川県,川崎市,川崎区田島町,,,35.515782,139.7115792,,,044-322-1960,,,,,2100853,,,月火水木金,8:30:00,17:00:00,休館日は土日、祝休日、年末年始（12/29〜1/3）,川崎区にある2 か所の支所は、主に所管する区域に住所のある市民を対象に業務を行っています。（支所の主な取扱業務）(1)証明書発行(2)地域住民組織の振興、市民活動支援(3)防災、防犯、交通安全(4)選挙の期日前投票,可,有,無,有,有,有,有,有,無,有,有,有,有,有,可,無,有,http://www.city.kawasaki.jp/kawasaki/page/0000029198.html,,,
141305,141305000094 ,神奈川県川崎市,川崎区役所道路公園センター,カワサキクヤクショドウロコウエンセンター,,,1399,,,141313,,神奈川県川崎市川崎区大島1-25-10,神奈川県,川崎市,川崎区大島,,,35.52602605,139.712776,,,044-244-3206,,,,,2100834,,,,8:30:00,17:00:00,休館日は土日、祝休日、年末年始（12/29〜1/3）,道路公園センターの業務内容は、次のとおりです。（主な業務内容）(1)道路・河川・水路・公園・緑地及び緑道などの相談受付(2) 道路・水路・駅前広場・公園・緑地及び緑道の使用(占用)許可 (3) 道路・河川・水路・公園・緑地及び緑道の境界確認(4) 道路幅員証明の発行(5) 私道舗装助成(6) 特殊車両の通行認定(7) 道路・河川・水路・駅前広場・駐輪場・公園・緑地・及び緑道の設計、監督(8) 道路・河川・水路・駅前広場・調整池・駐輪場・公園及び緑地内施設並びに街路樹の維持管理(9) 災害復旧工事(10)放置自転車の撤去,,,,,,,,,,,,,,,,,,http://www.city.kawasaki.jp/kawasaki/page/0000035906.html,,,
141305,141305000095 ,神奈川県川崎市,川崎行政サービスコーナー,カワサキギョウセイサービスコーナー,,,1399,,,141313,,神奈川県川崎市川崎区駅前本町26-1アトレ川崎3ＦJR川崎駅北口通路,神奈川県,川崎市,川崎区駅前本町,,,35.53191899,139.6980638,,,044-244-1371,,,,,2100007,,,,7:30:00,19:00:00,利用可能時間は7:30〜19:00、9:00〜17:00（土日、祝日）。休館日は年末年始（12/29〜1/3）。,住民票の写しなどの証明書を、通勤やお買物などの途中に受け取ることができます。どの区にお住まいの人も全ての行政サービスコーナーで、その場で受け取ることができます。（主な取扱業務）戸籍、住民基本台帳等の証明書発行,,,,,,,,,,,,,,,,,,http://www.city.kawasaki.jp/250/page/0000017151.html,,,
141305,141305000096 ,神奈川県川崎市,幸市民館,サイワイシミンカン,Saiwai Civic Hall,,1305,,,141321,,神奈川県川崎市幸区戸手本町1-11-2,神奈川県,川崎市,幸区戸手本町,,,35.54423808,139.6875913,,,044-541-3910,,88saisi@city.kawasaki.jp,,,2120023,,,月火水木金土日,9:00:00,21:00:00,休館日は毎月第3月曜日（第3月曜日が祝休日の場合は、翌日が休館）、年末年始(12/29〜1/3)、設備点検日,幸市民館は、社会教育法に基づき、市民の皆さまの自主的な学習や文化活動を支援する生涯学習施設です。市民向け学習講座やイベントの実施、ホールや会議室などの提供、機材の貸し出し、生涯学習情報の提供を行なっています。,可,有,無,有,有,無,無,有,無,無,有,有,有,有,否,無,有,http://www.city.kawasaki.jp/saiwai/category/96-11-3-0-0-0-0-0-0-0.html,,,
141305,141305000097 ,神奈川県川崎市,幸市民館日吉分館,サイワイシミンカンヒヨシブンカン,Saiwai Civic Hall Hiyoshi annex,,1305,,,141321,,神奈川県川崎市幸区南加瀬 1-7-17幸区役所日吉合同庁舎3階,神奈川県,川崎市,幸区南加瀬 ,,,35.5466779,139.6683144,階数,3,044-587-1491,,,,,2120055,,,,9:00:00,21:00:00,休館日は毎月第3月曜日（第3月曜日が祝休日の場合は、翌日が休館）、年末年始(12/29〜1/3),日吉分館は、平成10年度の基本構想づくりから市民と行政のパートナーシップにより整備が進められてきました。ワークショップや説明会などに多くの市民の方々が参加し、話し合いながら取り組んできました。日吉分館ができたら「こんなことを学びたい」「あんな活動をしてみたい」という市民のみなさんの希望とアイデアをいっぱいつめこんだ生涯学習施設として平成15年7月に開館しました。1階の日吉出張所との合築の利点を生かし、地域の身近な自主的・文化活動の拠点として、市民と共に歩んでいきます。,,,,,,,,,,,,,,,,,,http://www.city.kawasaki.jp/saiwai/category/96-11-2-1-0-0-0-0-0-0.html,,,
141305,141305000098 ,神奈川県川崎市,幸区役所,サイワイクヤクショ,Saiwai Ward Office,,1303,,,141321,,神奈川県川崎市幸区戸手本町1-11-1,神奈川県,川崎市,幸区戸手本町,,,35.54436104,139.6867954,,,044-556-6666,,63soumu@city.kawasaki.jp,,,2128570,,,,8:30:00,17:00:00,利用可能時間は8:30〜17:00（平日）、8:30〜12:30（第２、４土曜日）。休館は祝休日、年末年始（12/29〜1/3）（ただし第2・4土曜日を除く）,総合的な行政サービスの提供拠点として、以下の業務を取り扱っています。（主な取扱業務）(1)戸籍、住民基本台帳等の手続き及び証明書発行(2)国民健康保険、国民年金等に関する手続き(3)医療、保健等に関する手続き・相談(4)生活保護、児童、母子・父子、障害者、高齢者等の福祉に関する手続き・相談(5)地域住民組織の振興、市民活動支援(6)防災、防犯(7)選挙、統計,可,有,無,有,有,有,無,有,無,有,有,有（各階多目的トイレ）,有,有（３階授乳室及び各階多目的トイレ）,可（４階ラウンジ）,有,有,http://www.city.kawasaki.jp/saiwai/index.html,,,
141305,141305000099 ,神奈川県川崎市,幸区役所日吉出張所,サイワイクヤクショヒヨシシュッチョウジョ,Hiyoshi Branch Office,,1304,,,141321,,神奈川県川崎市幸区南加瀬1-7-17幸区役所日吉合同庁舎1階,神奈川県,川崎市,幸区南加瀬,,,35.54669012,139.6683131,,,044-599-1121,,63hiyosi@city.kawasaki.jp,,,2120055,,,月火水木金,8:30:00,17:00:00,休館日は祝休日、年末年始（12/29〜1/3）,出張所では、主に所管する区域に住所のある市民を対象に業務を行っています。(主な取扱業務)(1)戸籍、住民基本台帳等の証明書発行(2)地域住民組織（町内会・自治会、青少年指導、スポーツ推進委員等）の振興,可,有,無,有,有,有,無,有,無,有,有,有,有,有,無,無,有,https://www.city.kawasaki.jp/saiwai/page/0000035910.html,,,
141305,141305000100 ,神奈川県川崎市,幸区役所道路公園センター,サイワイクヤクショドウロコウエンセンター,,,1399,,,141321,,神奈川県川崎市幸区下平間357-3,神奈川県,川崎市,幸区下平間,,,35.54845661,139.6858165,,,044-544-5500,,,,,2120053,,,,8:30:00,17:15:00,休館日は土日、祝休日、年末年始（12/29〜1/3）,道路公園センターの業務内容は、次のとおりです。(主な業務内容)(1) 道路・河川・水路・公園・緑地及び緑道等に関する相談受付(2) 道路・水路・駅前広場・公園・緑地及び緑道の使用(占用)許可 (3) 道路・河川・水路・公園・緑地及び緑道の境界確認(4) 道路幅員証明の発行(5) 私道舗装助成(6) 特殊車両の通行認定(7) 道路・河川・水路・駅前広場・駐輪場・公園・緑地及び緑道の設計、監督(8) 道路・河川・水路・駅前広場・調整池・駐輪場・公園及び緑地内施設並びに街路樹の維持管理(9) 災害復旧工事(10)放置自転車の撤去,,,,,,,,,,,,,,,,,,http://www.city.kawasaki.jp/saiwai/page/0000035912.html,,,
141305,141305000101 ,神奈川県川崎市,中原市民館,ナカハラシミンカン,,,1305,,,141330,,神奈川県川崎市中原区新丸子東3-1100-12パークシティ武蔵小杉ミッドスカイタワー１・２階,神奈川県,川崎市,中原区新丸子東3,,,35.5746663,139.6604504,,,044-433-7773,,,,,2110004,,,,9:00:00,21:00:00,休館日は毎月第3月曜日（第3月曜日が国民の休日の場合は開館し、翌日の火曜日を休館とする。）、年末年始（12/29〜1/3）,中原市民館は、市民のみなさまに生涯学習活動の場を提供し、市民の教養の向上や文化の振興、健康の増進を図るため、川崎市市民館条例に基づき設置された社会教育施設です。,,,,,,,,,,,,,,,,,,http://www.city.kawasaki.jp/nakahara/category/97-11-1-0-0-0-0-0-0-0.html,,,
141305,141305000102 ,神奈川県川崎市,中原区役所,ナカハラクヤクショ,,,1303,,,141330,,神奈川県川崎市中原区小杉町3-245,神奈川県,川崎市,中原区小杉町,,,35.57630646,139.6557741,,,044-744-3113,,,,,2118570,,,,8:30:00,17:00:00,休館日は祝休日、年末年始（12/29〜1/3）,総合的な行政サービスの提供拠点として、以下の業務を取り扱っています。(主な取扱業務)(1)戸籍、住民基本台帳等の手続き及び証明書発行(2)国民健康保険、国民年金等に関する手続き(3)医療、保健等に関する手続き・相談(4)生活保護、児童、母子・父子、障害者、高齢者等の福祉に関する手続き・相談(5)地域住民組織の振興、市民活動支援、生涯学習支援(6)防災、防犯(7)選挙、統計,,,,,,,,,,,,,,,,,,http://www.city.kawasaki.jp/nakahara/index.html,,,
141305,141305000103 ,神奈川県川崎市,中原区役所道路公園センター,ナカハラクヤクショドウロコウエンセンター,,,1399,,,141330,,神奈川県川崎市中原区下小田中2-9-1,神奈川県,川崎市,中原区下小田中,,,35.57778462,139.6407781,,,044-788-2311,,,,,2110041,,,,8:30:00,17:00:00,休館日は祝休日、年末年始（12/29〜1/3）,道路公園センターの業務内容、所在地は、次のとおりです。(主な業務内容)(1) 道路・河川・水路・公園・緑地及び緑道などの相談受付(2) 道路・水路・駅前広場・公園・緑地及び緑道の使用(占用)許可 (3) 道路・河川・水路・公園・緑地及び緑道の境界確認(4) 道路幅員証明の発行(5) 私道舗装助成(6) 特殊車両の通行認定(7) 道路・河川・水路・駅前広場・駐輪場・公園・緑地・及び緑道の設計、監督(8) 道路・河川・水路・駅前広場・調整池・駐輪場・公園及び緑地内施設並びに街路樹の維持管理(9) 災害復旧工事,,,,,,,,,,,,,,,,,,http://www.city.kawasaki.jp/nakahara/page/0000035900.html,,,
141305,141305000104 ,神奈川県川崎市,小杉行政サービスコーナー,コスギギョウセイサービスコーナー,,,1399,,,141330,,神奈川県川崎市中原区小杉町403-83JR武蔵小杉駅駅舎下　北口バスターミナル側,神奈川県,川崎市,中原区小杉町,,,35.57672366,139.6596947,,,044-722-8685,,,,,2110063,,,,7:30:00,19:00:00,利用可能時間は7:30〜19:00、9:00〜17:00（土日）。休館日は祝日（振替休日を含む）、年末年始（12/29〜1/3）,住民票の写しなどの証明書を、通勤やお買物などの途中に受け取ることができます。どの区にお住まいの人も全ての行政サービスコーナーで、その場で受け取ることができます。(主な取扱業務)戸籍、住民基本台帳等の証明書発行,,,,,,,,,,,,,,,,,,http://www.city.kawasaki.jp/250/page/0000017151.html,,,
141305,141305000105 ,神奈川県川崎市,高津市民館,タカツシミンカン,Takatsu Civic Hall,高津市民館,1305,,,141348,,神奈川県川崎市高津区溝口1-4-1 ノクティプラザ2 11階・12階,神奈川県,川崎市,高津区溝口,,,35.59909217,139.6128062,,,044-814-7603,,info@takatsu-shiminkan.jp,,,2130001,,たかつ・未来共創パートナーズ,月火水木金土日,9:00:00,21:00:00,休館日は毎月第3月曜日（祝日と重なる場合は翌日）、年末年始（12/29〜1/3）、設備点検日,高津市民館は、市民の皆さまの自主的な学習・文化活動を支援する生涯学習の場です。ホール・会議室などの貸し出しのほか、これから赤ちゃんを迎える人から子育て真っ最中の人、子ども、大人、高齢者、外国人市民、障がいをもつ人など、さまざまな世代や立場の人を対象とした各種事業を実施して、地域の皆さまの『学ぶ場、集う場づくり』を支援しています。,可,可,無,有,有,無,有,可,無,有,無,無,有,有,一部可,無,可,http://kawasaki-takatsu.jp/shiminkan,HP参照,版権所有,令和8(2026)年10月1日から令和10年３月末日まで大ホール天井改修工事を実施します。各工事に伴い、当該期間はの大ホールのご利用ができません。ご不便をおかけしますがご理解を賜りますようお願い申し上げます。
141305,141305000106 ,神奈川県川崎市,高津市民館橘分館,タカツシミンカンタチバナブンカン,plaza tachibana,プラザ橘,1305,,,141348,,神奈川県川崎市高津区久末2012-1 プラザ橘,神奈川県,川崎市,高津区久末,,,35.57012258,139.6238633,,,044-788-1531,,kanri@plaza-tachibana.jp,,Instagram：https://www.instagram.com/plaza_tachibana/,2130026,,たかつ・未来共創パートナーズ,月火水木金土日,9:00:00,21:00:00,"休館日は毎月第3月曜日（祝日の場合はその翌日）、年末年始(12/29〜1/3）、施設点検日
（図書館と利用時間が異なりますので、ご注意ください。）","プラザ橘は市民館と図書館の分館として、地域の皆さまの自主的な学習・文化活動の拠点となることを願って設立された施設です。地域の皆さまのつどいや学び合いの場として、各種催し物や学級・講座を開催したり、サークル活動、集会、会議などのために学習室等の施設の貸出をしています。また、図書館には、約30,000冊が蔵書されており、閲覧・貸出をしています。",可,可,無,有,有,有,有,可,無,有,有,有,有,有,一部可,無,可,https://www.kawasaki-takatsu.jp/plaza/,,,
141305,141305000107 ,神奈川県川崎市,川崎市大山街道ふるさと館,カワサキシオオヤマカイドウフルサトカン,ooyamakaidou hurusatokan,大山街道ふるさと館,803,,,141348,,神奈川県川崎市高津区溝口3-13-3,神奈川県,川崎市,高津区溝口,,,35.6033936,139.6128564,,,044-813-4705,,,https://furusatokan.info/contact.php,,2130001,7000020141305,大山街道ふるさと館共同運営事業体,月火水木金土日,9:30:00,21:30:00,休館日は年末年始（12月28日〜1月4日）,大山街道の歴史・民俗・自然などに関する貴重な歴史資料等の保存、展示をすることを目的として設置された施設です。展示のほか、地域活動・文化活動等の拠点としてご活用いただけるよう、会議室・イベントホール・和室を貸し出しています。,可,可,無,無,有,有,有,可,無,有,無,無,無,有,一部可,無,可,http://furusatokan.web5.jp/,,,
141305,141305000108 ,神奈川県川崎市,高津区役所,タカツクヤクショ,Takatsu Ward Office,高津区役所,1303,,,141348,,神奈川県川崎市高津区下作延2-8-1,神奈川県,川崎市,高津区下作延,,,35.59944297,139.6080245,,,044-861-3113,,,,,2138570,7000020141305,,"月火水木金、土（第2,4）","8:30:00
8:30:00","17:00:00
12:30:00","休館日は祝休日、年末年始(12/29〜1/3)
土曜日は毎月第2、第4の午前8時半〜午後0時半、区民課と保険年金課の業務のみ。",総合的な行政サービスの提供拠点として、以下の業務を取り扱っています。(主な取扱業務)(1)戸籍、住民基本台帳等の手続き及び証明書発行(2)国民健康保険、国民年金等に関する手続き(3)医療、保健等に関する手続き・相談(4)生活保護、児童、母子・父子、障害者、高齢者等の福祉に関する手続き・相談(5)地域住民組織の振興、市民活動支援、生涯学習支援(6)防災、防犯(7)道路・公園等の維持管理(8)選挙、統計,可,可,無,有,有,有（1階）,有,可,無,有,有,無,有,有,可,無,可,https://www.city.kawasaki.jp/takatsu/,,,
141305,141305000109 ,神奈川県川崎市,高津区役所橘出張所,タチバナシュッチョウジョ,Tachibana Branch Office,橘出張所,1304,,,141348,,神奈川県川崎市高津区千年1362-1,神奈川県,川崎市,高津区千年,,,35.58207923,139.6206157,,,044-777-2355,,,,,2130022,7000020141305,,月火水木金,8:30:00,17:00:00,休館日は祝休日、年末年始(12/29〜1/3),出張所では、主に所管する区域に住所のある市民を対象に業務を行っています。(主な取扱業務)(1)戸籍、住民基本台帳等の証明書発行(2)地域住民組織の振興、市民活動支援,可,可,無,有,有,有（1階）,有,可,無,有,有,無,有,有,可,無,可,http://www.city.kawasaki.jp/takatsu/page/0000035916.html,,,
141305,141305000110 ,神奈川県川崎市,高津区役所道路公園センター,タカツクヤクショドウロコウエンセンター,Takatsu Ward Roads and Parks Center ,高津区役所道路公園センター,1399,,,141348,,神奈川県川崎市高津区溝口5-15-7,神奈川県,川崎市,高津区溝口,,,35.60802507,139.614464,,,044-833-1221,,,,,2130001,7000020141305,,月火水木金,8:30:00,17:00:00,休館日は祝休日、年末年始(12/29〜1/3),道路公園センターの業務内容は、次のとおりです。(主な業務内容)(1) 道路・河川・水路・公園・緑地及び緑道などの相談受付(2) 道路・水路・駅前広場・公園・緑地及び緑道の使用(占用)許可 (3) 道路・河川・水路・公園・緑地及び緑道の境界確認(4) 道路幅員証明の発行(5) 私道舗装助成(6) 特殊車両の通行認定(7) 道路・河川・水路・駅前広場・駐輪場・公園・緑地・及び緑道の設計、監督(8) 道路・河川・水路・駅前広場・調整池・駐輪場・公園及び緑地内施設並びに街路樹の維持管理(9) 災害復旧工事(10)放置自転車の撤去,可,無,無,有,有,無,無,可,無,無,有,無,無,無,可,無,可,http://www.city.kawasaki.jp/takatsu/page/0000035917.html,,,
141305,141305000111 ,神奈川県川崎市,溝口行政サービスコーナー,ミゾノクチギョウセイサービスコーナー,,溝口行政サービスコーナー,1399,,,141348,,神奈川県川崎市高津区溝口1-3-1 ノクティプラザ1 地下1階,神奈川県,川崎市,高津区溝口,,,35.59896133,139.6119908,,,044-814-7500,,,,,2130001,7000020141305,,月火水木金土日,7:30:00,19:00:00,"利用可能時間は7:30〜19:00、9:00〜17:00（土日）
館日は祝日（振替休日を含む）、年末年始（12/29〜1/3）",住民票の写しなどの証明書を、通勤やお買物などの途中に受け取ることができます。どの区にお住まいの人も全ての行政サービスコーナーで、その場で受け取ることができます。(主な取扱業務) 戸籍、住民基本台帳等の証明書発行,可,無,無,無,有,無,無,可,無,無,無,無,無,無,否,無,可,http://www.city.kawasaki.jp/250/page/0000017151.html,,,
141305,141305000112 ,神奈川県川崎市,宮前市民館,ミヤマエシミンカン,Miyamae Civic Hall,,1305,,,141364,,神奈川県川崎市宮前区宮前平2-20-4,神奈川県,川崎市,宮前区宮前平,,,35.58936474,139.5796427,,,044-888-3911,,,,,2160006,,,月火水木金土日,9:00:00,21:00:00,休館日は毎月第3月曜日（祝日と重なる場合は翌日）、年末年始（12/29〜1/3）、設備点検日。,宮前市民館は社会教育法に基づき市民のみなさんの自主的な学習・文化活動を支援する生涯学習施設です。学習発表のための施設提供や、各種学級講座を開設しています。また、学習サークル情報の提供、教材・機材の貸出も行なっています。,,,,,,,,,,,,,,,,,,http://www.city.kawasaki.jp/miyamae/category/117-11-3-0-0-0-0-0-0-0.html,,,
141305,141305000113 ,神奈川県川崎市,宮前市民館菅生分館,ミヤマエシミンカンスガオブンカン,,,1305,,,141364,,神奈川県川崎市宮前区菅生5-4-11,神奈川県,川崎市,宮前区菅生,,,35.59493933,139.5554649,,,044-977-4781,,,,,2160015,,,,9:00:00,21:00:00,休館日は毎月第3月曜日（祝日と重なる場合は翌日）、年末年始（12/29〜1/3）、設備点検,菅生分館は社会教育法に基づく生涯学習を支援するための施設です。いつでも、どこでも、だれでもが気軽に学ぶことができる環境づくりを目指しています。 ,,,,,,,,,,,,,,,,,,http://www.city.kawasaki.jp/miyamae/category/117-11-2-0-0-0-0-0-0-0.html,,,
141305,141305000114 ,神奈川県川崎市,有馬・野川生涯学習支援施設（アリーノ）,アリマ・ノガワショウガイガクシュウシエンシセツ（アリーノ）,,,1599,,,141364,,神奈川県川崎市宮前区東有馬4-6-1,神奈川県,川崎市,宮前区東有馬,,,35.57121551,139.5884095,,,044-853-3737,,,,,2160002,,,,9:00:00,21:00:00,休館日は毎月第3月曜日（祝日と重なる場合は翌日）、年末年始（12/29〜1/3）、設備点検,有馬・野川生涯学習支援施設（アリーノ）は地域における市民の主体的な学習活動の支援を行うことにより、生涯学習の振興を図り、個性豊かで活力に満ちた地域社会づくりに寄与するための施設です。,,,,,,,,,,,,,,,,,,http://www.ari-no.jp/,,,
141305,141305000115 ,神奈川県川崎市,宮前区役所,ミヤマエクヤクショ,Miyamae Ward Office,,1303,,,141364,,神奈川県川崎市宮前区宮前平2-20-5,神奈川県,川崎市,宮前区宮前平,,,35.58909555,139.578663,,,044-856-3113,,,,,2168570,,,,8:30:00,17:00:00,休館日は祝休日、年末年始（12/29〜1/3）,"総合的な行政サービスの提供拠点として、以下の業務を取り扱っています。
(主な取扱業務)(1)戸籍、住民基本台帳等の手続き及び証明書発行(2)国民健康保険、国民年金等に関する手続き(3)医療、保健等に関する手続き・相談(4)生活保護、児童、母子・父子、障害者、高齢者等の福祉に関する手続き・相談(5)地域住民組織の振興、市民活動支援、生涯学習支援(6)防災、防犯(7)選挙、統計",,,,,,,,,,,,,,,,,,http://www.city.kawasaki.jp/miyamae/,,,
141305,141305000116 ,神奈川県川崎市,宮前区役所向丘出張所,ムカイガオカシュッチョウジョ,,,1304,,,141364,,神奈川県川崎市宮前区平1-1-10,神奈川県,川崎市,宮前区平,,,35.59965956,139.5767943,,,044-866-6461,75111,69muko@city.kawasaki.jp,,,2160022,,川崎市,月火水木金,8:30:00,17:00:00,休館日は祝休日、年末年始（12/29〜1/3）,出張所では、主に所管する区域に住所のある市民を対象に業務を行っています。(主な取扱業務)(1)戸籍、住民基本台帳等の証明書発行(2)地域住民組織の振興、市民活動支援,可,有,無,有,有,有,有,可,無,有,有,無,有,有,否,無,有,http://www.city.kawasaki.jp/miyamae/page/0000035925.html,,,
141305,141305000117 ,神奈川県川崎市,宮前区役所道路公園センター,ミヤマエクヤクショドウロコウエンセンター,,,1399,,,141364,,神奈川県川崎市宮前区有馬2-6-4,神奈川県,川崎市,宮前区有馬,,,35.57965493,139.5835868,,,044-877-1661,,,,,2160003,-,川崎市,月火水木金,8:30:00,17:00:00,"利用可能時間は8:30〜17:00（昼休み12:00〜13:00
）。休館は土日、祝休日、年末年始(12/29〜1/3)",道路公園センターの業務内容は、次のとおりです。(主な業務内容)(1) 道路・河川・水路・公園・緑地及び緑道などの相談受付(2) 道路・水路・駅前広場・公園・緑地及び緑道の使用(占用)許可 (3) 道路・河川・水路・公園・緑地及び緑道の境界確認(4) 道路幅員証明の発行(5) 私道舗装助成(6) 特殊車両の通行認定(7) 道路・河川・水路・駅前広場・駐輪場・公園・緑地・及び緑道の設計、監督(8) 道路・河川・水路・駅前広場・調整池・駐輪場・公園及び緑地内施設並びに街路樹の維持管理(9) 災害復旧工事(10)放置自転車の撤去,,,,,,,,,,,,,,,,,,http://www.city.kawasaki.jp/miyamae/page/0000035927.html,,,
141305,141305000118 ,神奈川県川崎市,鷺沼行政サービスコーナー,サギヌマギョウセイサービスコーナー,Saginuma Administrative Service Corner,,1399,,,141364,,神奈川県川崎市宮前区鷺沼3-2-1東急ドエル・アルス鷺沼ネクステージ1階,神奈川県,川崎市,宮前区鷺沼,,,35.57978432,139.5725788,,,044-852-8471,,,,,2160004,,,,7:30:00,19:00:00,利用可能時間は7:30〜19:00、9:00〜17:00（土日）。休館日は祝日（振替休日を含む）、年末年始（12/29〜1/3）,住民票の写しなどの証明書を、通勤やお買物などの途中に受け取ることができます。どの区にお住まいの人も全ての行政サービスコーナーで、その場で受け取ることができます。(主な取扱業務) 戸籍、住民基本台帳等の証明書発行,,,,,,,,,,,,,,,,,,http://www.city.kawasaki.jp/250/page/0000017151.html,,,
141305,141305000119 ,神奈川県川崎市,多摩市民館,タマシミンカン,Tama Civic Hall,多摩市民館,1305,,,141356,,神奈川県川崎市多摩区登戸1775-1,神奈川県,川崎市,多摩区登戸,,,35.61952277,139.5621026,,,044-935-3333,,,,,2148570,,,日月火水木金土,9:00:00,21:00:00,休館は第3月曜日（祝日の時はその直後の休日でない日）、年末年始（12/29〜1/3）、設備点検日,多摩市民館は社会教育法に基づき市民の学習や文化活動を支援するための施設です。市民向けの学習講座やイベントの実施、会議室等の提供を行っています。,可,有,無,有,有,一部有,一部有,可,,,,有,有,有,一部可,無,可,https://www.city.kawasaki.jp/tama/category/98-11-1-0-0-0-0-0-0-0.html,,,
141305,141305000120 ,神奈川県川崎市,多摩区役所,タマクヤクショ,Tama Ward Office,多摩区役所,1303,,,141356,,神奈川県川崎市多摩区登戸1775-1,神奈川県,川崎市,多摩区登戸,,,35.61952277,139.5621026,,,044-935-3113,,,,,2148570,,,月火水木金土,8:30:00,17:00:00,"休館日は祝休日、年末年始（12/29〜1/3）
※土曜日は毎週第2、第4土曜日の午前8時30分〜午後0時30分の一部の窓口のみ開庁しています。","総合的な行政サービスの提供拠点として、以下の業務を取り扱っています。
(主な取扱業務)(1)戸籍、住民基本台帳等の手続き及び証明書発行(2)国民健康保険、国民年金等に関する手続き(3)医療、保健等に関する手続き・相談(4)生活保護、児童、母子・父子、障害者、高齢者等の福祉に関する手続き・相談(5)地域住民組織の振興、市民活動支援、生涯学習支援(6)防災、防犯(7)道路・公園等の維持管理(8)選挙、統計",可,有,無,有,有（エレベータのみ）,有,有,可,,有,有,有,有,有,可（11階レストランのみ）,無,可,http://www.city.kawasaki.jp/tama/index.html,,,
141305,141305000121 ,神奈川県川崎市,多摩区役所生田出張所,タマクヤクショイクタシュッチョウジョ,Ikuta Branch Office,生田出張所,1304,,,141356,,神奈川県川崎市多摩区生田7-16-1,神奈川県,川崎市,多摩区生田,,,35.61428834,139.535457,,,044-933-7111,,71ikuta@city.kawasaki.jp,,,2140038,,川崎市,月火水木金,08:30,17:00,祝休日及び年末年始（12/29〜1/3）を除く,出張所では、主に所管する区域に住所のある市民を対象に業務を行っています。【主な取扱業務】@ 戸籍、住民基本台帳等の証明書発行A 地域住民組織（町内会・自治会、青少年指導員、スポーツ推進委員等）の振興,可,有,無,有,有（エレベータのみ）,有,有,可,,有,有,有,有,有,可（一部のフロアのみ）,無,可,http://www.city.kawasaki.jp/tama/page/0000035937.html,,,
141305,141305000122 ,神奈川県川崎市,多摩区役所道路公園センター,タマクヤクショドウロコウエンセンター,Tama Ward Roads and Parks Management Center,多摩区役所道路公園センター,1399,,,141356,,神奈川県川崎市多摩区菅北浦4-11-20,神奈川県,川崎市,多摩区菅北浦,,,35.62502315,139.5308731,,,044-946-0044,76512,71doukan@city.kawasaki.jp,,,2140008,,,月火水木金,8:30:00,17:00:00,休館日は祝休日、年末年始（12/29〜1/3）,道路公園センターの業務内容は、次のとおりです。(主な業務内容)(1) 道路・河川・水路・公園・緑地及び緑道などの相談受付(2) 道路・水路・駅前広場・公園・緑地及び緑道の使用(占用)許可(3) 道路・河川・水路・公園・緑地及び緑道の境界確認(4) 道路幅員証明の発行(5) 私道舗装助成(6) 特殊車両の通行認定(7) 道路・河川・水路・駅前広場・駐輪場・公園・緑地・及び緑道の設計、監督(8) 道路・河川・水路・駅前広場・調整池・駐輪場・公園及び緑地内施設並びに街路樹の維持管理(9) 災害復旧工事(10)放置自転車の撤去,可（１階のみ）,無,無,有,無,有,無,可,無,可,有,有,無,有,否,無,可（１階のみ）,http://www.city.kawasaki.jp/tama/page/0000035941.html,,,
141305,141305000123 ,神奈川県川崎市,登戸行政サービスコーナー,ノボリトギョウセイサービスコーナー,Noborito Administrative Service Corner,登戸行政サービスコーナー,1399,,,141356,,神奈川県川崎市多摩区登戸3435ＪＲ登戸駅ビル2階,神奈川県,川崎市,多摩区登戸,,,35.62091023,139.5696922,,,044-933-3000,,,,,2140014,,,月火水木金土日,7:30:00,19:00:00,利用可能時間は平日7:30〜19:00、土・日9:00〜17:00。休館日は祝休日、年末年始（12/29〜1/3）,住民票の写しなどの証明書を、通勤やお買物などの途中に受け取ることができます。どの区にお住まいの人も全ての行政サービスコーナーで、その場で受け取ることができます。(主な取扱業務)戸籍、住民基本台帳等の証明書発行,,,,,,,,,,,,,,,,,,http://www.city.kawasaki.jp/250/page/0000017151.html,,,
141305,141305000124 ,神奈川県川崎市,菅行政サービスコーナー,スゲギョウセイサービスコーナー,Suge Administrative Service Corner,菅行政サービスコーナーコーナー,1399,,,141356,,神奈川県川崎市多摩区菅3-1-1K・Tプラザビル5階,神奈川県,川崎市,多摩区菅,,,35.63378217,139.5301489,,,044-945-2730,,,,,2140001,,,月火水木金土日,7:30:00,19:00:00,利用可能時間は平日7:30〜19:00、土・日9:00〜17:00。休館日は祝休日、年末年始（12/29〜1/3）,住民票の写しなどの証明書を、通勤やお買物などの途中に受け取ることができます。どの区にお住まいの人も全ての行政サービスコーナーで、その場で受け取ることができます。(主な取扱業務)戸籍、住民基本台帳等の証明書発行,,,,,,,,,,,,,,,,,,http://www.city.kawasaki.jp/250/page/0000017151.html,,,
141305,141305000125 ,神奈川県川崎市,麻生市民館,アサオシミンカン,Asao Civic Hall,麻生市民館,1305,,,141372,,神奈川県川崎市麻生区万福寺1-5-2,神奈川県,川崎市,麻生区万福寺,,,35.60432127,139.5054091,,,044-951-1300,,,,,2150004,,,月火水木金土日,9:00:00,21:00:00,休館日は毎月第3月曜日（祝日と重なる場合は翌日）、年末年始（12/29〜1/3）、設備点検日,川崎市の市民館は、「社会教育法」に基づいて運営されている、市民の生涯学習を支援するための教育機関です。麻生市民館では、そのために麻生区民を対象として教育・学術・文化に関する各種の学級、講座を行なっています。 ,可,有,無,有,有,有,有,可,無,可,有（区役所）,有,有,有（トイレ、授乳室）,一部可,無,可,http://www.city.kawasaki.jp/asao/category/112-11-1-0-0-0-0-0-0-0.html,,,
141305,141305000126 ,神奈川県川崎市,麻生市民館岡上分館,アサオシミンカンオカガミブンカン,Okagami Civic Hall Annex,岡上分館,1305,,,141372,,神奈川県川崎市麻生区岡上3-15-5,神奈川県,川崎市,麻生区岡上,,,35.58085025,139.4826344,,,044-988-0268,,,,,2150027,,,月火水木金土日,9:00:00,21:00:00,休館日は毎月第3月曜日（祝日と重なる場合は翌日）、年末年始（12/29〜1/3）、設備点検日,川崎市の市民館は、「社会教育法」に基づいて運営されている、市民の生涯学習を支援するための教育機関です。麻生市民館では、そのために麻生区民を対象として教育・学術・文化に関する各種の学級、講座を行なっています。 ,可（1F）,無,無,有,無,有,無,可,無,可,無,無,無,有（多目的トイレ）,否,無,可,http://www.city.kawasaki.jp/asao/category/112-11-2-0-0-0-0-0-0-0.html,,,
141305,141305000127 ,神奈川県川崎市,麻生区役所,アサオクヤクショ,,,1303,,,141372,,神奈川県川崎市麻生区万福寺1-5-1,神奈川県,川崎市,麻生区万福寺,,,35.6037474,139.5058013,,,044-965-5100,,,,,2158570,,,,8:30:00,17:00:00,休館日は祝休日、年末年始（12/29〜1/3）,総合的な行政サービスの提供拠点として、以下の業務を取り扱っています。(主な取扱業務)(1)戸籍、住民基本台帳等の手続き及び証明書発行(2)国民健康保険、国民年金等に関する手続き(3)医療、保健等に関する手続き・相談(4)生活保護、児童、母子・父子、障害者、高齢者等の福祉に関する手続き・相談(5)地域住民組織の振興、市民活動支援、生涯学習支援(6)防災、防犯(7)選挙、統計,,,,,,,,,,,,,,,,,,http://www.city.kawasaki.jp/asao/,,,
141305,141305000128 ,神奈川県川崎市,麻生区役所道路公園センター,アサオクヤクショドウロコウエンセンター,,,1399,,,141372,,神奈川県川崎市麻生区古沢120,神奈川県,川崎市,麻生区古沢,,,35.60473528,139.5012128,,,044-954?0505,,,,,2150026,,,,8:30:00,17:00:00,休館日は祝休日、年末年始（12/29〜1/3）,道路公園センターの業務内容は、次のとおりです。(主な業務内容)(1) 道路・河川・水路・公園・緑地及び緑道などの相談受付(2) 道路・水路・駅前広場・公園・緑地及び緑道の使用(占用)許可 (3) 道路・河川・水路・公園・緑地及び緑道の境界確認(4) 道路幅員証明の発行(5) 私道舗装助成(6) 特殊車両の通行認定(7) 道路・河川・水路・駅前広場・駐輪場・公園・緑地・及び緑道の設計、監督(8) 道路・河川・水路・駅前広場・調整池・駐輪場・公園及び緑地内施設並びに街路樹の維持管理(9) 災害復旧工事(10)放置自転車の撤去,,,,,,,,,,,,,,,,,,http://www.city.kawasaki.jp/asao/page/0000035960.html,,,
141305,141305000129 ,神奈川県川崎市,川崎市立川崎病院,カワサキシリツカワサキビョウイン,Kawasaki Municipal Hospital,,1601,,,141313,,神奈川県川崎市川崎区新川通12-1,神奈川県,川崎市,川崎区新川通,,,35.52664785,139.7060102,,,044-233-5521,,,,,2100013,,,,,,利用可能時間は外来診察受付 8:00〜11:00（初診）、8:30〜11:00（再診等）、一般病棟の面会14:00〜20:00（平日）13:00〜20:00（土日、祝日）。土日、祝日、年末年始（12/29〜1/3）は外来休診。ただし、救急診療は行っています。,,可,有,なし,有,エレベータ有,,,院内同伴可能,,〇,６台,有,有,有（小児のみ）,可となっているスペースあり,なし,,https://www.hospital-kawasaki.city.kawasaki.jp,,,※新型コロナウイルス感染症等の影響で、診療時間や面会時間等が変更となる場合がありますので、最新の情報は、施設のホームページで御確認ください。
141305,141305000130 ,神奈川県川崎市,川崎市立井田病院,カワサキシリツイダビョウイン,,,1601,,,141330,,神奈川県川崎市中原区井田2-27-1,神奈川県,川崎市,中原区井田,,,35.55934713,139.6407698,,,044-766-2188,,,,,2110035,,,,,,利用可能時間は外来診察受付 8:30〜11:00（初診）、8:00〜11:00（再診午前）、11:30〜15:00（再診午後）、一般病棟の面会13:00〜20:00。休館日は土曜・日曜・祝日および年末年始（12/29〜1/3）は外来休診。ただし、救急診療は行っています。 ,,可,有,なし,有,エレベータ有,,,同伴可能,,〇,６台,有,有,,可となっているスペースあり,なし,,https://www.hospital-ida.city.kawasaki.jp/,,,※新型コロナウイルス感染症等の影響で、診療時間や面会時間等が変更となる場合がありますので、最新の情報は、施設のホームページで御確認ください。
141305,141305000131 ,神奈川県川崎市,川崎市立多摩病院,カワサキシリツタマビョウイン,,,1601,,,141356,,神奈川県川崎市多摩区宿河原1-30-37,神奈川県,川崎市,多摩区宿河原,,,35.61971522,139.5725316,,,044-933-8111,,,,,2148525,,,,,,利用可能時間は外来診察受付 8:30〜11:30、13:30〜14:30（初診）（平日）、8:30〜10:30（初診）（第2、4、5土曜）、8:30〜11:30（再診）（平日）、8:30〜11:00（再診）（第2、4、5土曜）、一般病棟の面会 13:00〜16:00（平日）、13:00〜16:00（土、日、祝日）,多摩病院は、川崎市3つ目の市立病院として、聖マリアンナ医科大学が管理運営を行う病院です。また、北部地域の中核病院として、小児救急を含めた救急医療を中心に、高度・特殊・急性期医療、アレルギー医療などを提供するとともに、地域医療支援病院として地域のかかりつけ医等と連携・支援しながら地域全体の医療供給体制の向上を図っています。,可,有,,有,エレベータ　有,有,有,同伴可,,有,有（6台）,有,有,有,スペース有,無,可,"https://tama.marianna-u.ac.jp/index.html
",,,※新型コロナウイルス感染症等の影響で、診療時間や面会時間等が変更となる場合がありますので、最新の情報は、施設のホームページで御確認ください。
141305,141305000132 ,神奈川県川崎市,川崎市青少年科学館,カワサキシセイショウネンカガクカン,Kawasaki Municipal Science Museum,かわさき宙と緑の科学館,801,,,141356,,神奈川県川崎市多摩区枡形7-1-2,神奈川県,川崎市,多摩区枡形,,,35.60851582,139.5614948,,,044-922-4731,,,,,2140032,,,火水木金土日,9:30:00,17:00:00,休館日は毎週月曜日（祝日の場合は開館）、祝日の翌日（土日・祝日の場合は開館）、年末年始（12/29〜1/3）,自然・天文・科学に関する展示や観察会、体験教室等を行う市内唯一の自然科学系の登録博物館。世界最高水準の投影システム「MEGASTAR-V FUSION」を備えたプラネタリウム、大型望遠鏡を備えた天体観測スペース「アストロテラス」がある。,可,有,無,有,有,無,有,有,無,有,無,有,有,有,否,有,有,https://www.nature-kawasaki.jp/,,,・入館無料。プラネタリウムのみ有料（割引等有り）※開館時間や休館日等が変更となる場合がありますので、最新の情報は、施設のホームページ等で御確認ください。
141305,141305000133 ,神奈川県川崎市,川崎市立日本民家園,カワサキシリツニホンミンカエン,Japan Open-air Folk House Museum,,801,,,141356,,神奈川県川崎市多摩区枡形7-1-1,神奈川県,川崎市,多摩区枡形,,,35.60989423,139.561701,,, 044-922-2181 ,,,,FAX 044-934-8652,2140032,,,,,,利用可能時間は9:30〜17:00（3〜10月）、9:30〜16:30（11〜2月）。休館日は月曜日（祝日の場合は開園 ）、祝日の翌日（土日・祝日の場合は開園）、年末年始（12/29〜1/3）、臨時休園あり,国・県の重要文化財を含む25の文化財建造物を展示する野外博物館,可,有,,有,有,無,無,,無,,有,有,有,有,,無,,https://www.nihonminkaen.jp/,,,開園時間や休園日等が変更となる場合がありますので、最新の情報は、施設のホームページ等で御確認ください。
141305,141305000134 ,神奈川県川崎市,地名資料室,チメイシリョウシツ,,,803,,,141348,,神奈川県川崎市高津区溝口1-6-10生活文化会館（てくのかわさき）4階,神奈川県,川崎市,高津区溝口,,,35.59879668,139.6140075,,,044−812−1102,,,,,2130001,,,,9:00:00,16:30:00,休館日は毎週月曜日、祝日、年末年始,地名に関する資料を総合的に収集保存し、展示を行うとともに、利用者は資料を閲覧することができる。貸出しは行っていないが、目録による検索、教育専門員による学習相談、普及・啓発事業などを実施している。,,,,,,,,,,,,,,,,,,https://www.city.kawasaki.jp/880/category/10-6-6-0-0-0-0-0-0-0.html,,,開館時間や休館日等が変更となる場合がありますので、最新の情報は、施設のホームページ等で御確認ください。
141305,141305000135 ,神奈川県川崎市,川崎市生涯学習プラザ,カワサキシショウガイガクシュウプラザ,,,1599,,,141330,,神奈川県川崎市中原区今井南町28ｰ41,神奈川県,川崎市,中原区今井南町,,,35.57066094,139.6541438,,,044-733-5560,,,,,2110064,,,,9:00:00,21:00:00,休館日は年末年始（12/29〜1/3）、施設点検日,予約しやすく、使いやすい施設として、学習会やミーティング、自治会・管理組合の総会、軽いスポーツ、企業の研修会や展示会場としてご利用いただいています。,,,,,,,,,,,,,,,,,,https://www.kpal.or.jp/,,,※新型コロナウイルス感染症の影響で、今後、開館時間や休館日等が変更となる場合がありますので、最新の情報は、施設のホームページ等で御確認ください。
141305,141305000136 ,神奈川県川崎市,会館とどろき,カイカントドロキ,,,1599,,,141330,,神奈川県川崎市中原区宮内　4-1-2　,神奈川県,川崎市,中原区宮内　,,,35.58440068,139.6490854,,,044-733-3333,,,,,2110051,,,,,,利用可能時間は9:00〜21:00（平日）、9:00〜17:00（土日祝日）、休館は年末年始（12/29〜1/3）、施設点検日, 会館とどろきは、川崎市立学校教職員のための福利厚生施設ですが、貸会場やイベントへの参加など、一般の皆様どなたでもご利用いただけます。地域に根差した会館を目指しています。,,,,,,,,,,,,,,,,,,http://www.k-gojo-todoroki.or.jp/,,,※新型コロナウイルス感染症の影響で、今後、開館時間や休館日等が変更となる場合がありますので、最新の情報は、施設のホームページ等で御確認ください。
141305,141305000137 ,神奈川県川崎市,富士見公園,ﾌｼﾞﾐｺｳｴﾝ,,,1003,,,141313,,神奈川県川崎市川崎区富士見１丁目、２丁目,神奈川県,川崎市,川崎区富士見,,,,,,,,,,,,,,,,,,,,,,,,,,,,,,,,,,,,,,,,
141305,141305000138 ,神奈川県川崎市,多摩川緑地鈴木町地区,ﾀﾏｶﾞﾜﾘｮｸﾁｽｽﾞｷﾁｮｳﾁｸ,,,1003,,,141313,,神奈川県川崎市川崎区鈴木町地内,神奈川県,川崎市,川崎区鈴木町地内,,,,,,,,,,,,,,,,,,,,,,,,,,,,,,,,,,,,,,,,
141305,141305000139 ,神奈川県川崎市,多摩川緑地大師河原地区,ﾀﾏｶﾞﾜﾘｮｸﾁﾀﾞｲｼｶﾜﾗﾁｸ,,,1003,,,141313,,神奈川県川崎市川崎区大師河原地内,神奈川県,川崎市,川崎区大師河原地内,,,,,,,,,,,,,,,,,,,,,,,,,,,,,,,,,,,,,,,,
141305,141305000140 ,神奈川県川崎市,多摩川緑地殿町地区,ﾀﾏｶﾞﾜﾘｮｸﾁﾄﾉﾏﾁﾁｸ,,,1003,,,141313,,神奈川県川崎市川崎区殿町１丁目地内,神奈川県,川崎市,川崎区殿町,,,,,,,,,,,,,,,,,,,,,,,,,,,,,,,,,,,,,,,,
141305,141305000141 ,神奈川県川崎市,多摩川緑地中瀬地区,ﾀﾏｶﾞﾜﾘｮｸﾁﾅｶｾﾁｸ,,,1003,,,141313,,神奈川県川崎市川崎区中瀬１丁目地内,神奈川県,川崎市,川崎区中瀬,,,,,,,,,,,,,,,,,,,,,,,,,,,,,,,,,,,,,,,,
141305,141305000142 ,神奈川県川崎市,桜川公園,ｻｸﾗｶﾞﾜｺｳｴﾝ,,,1003,,,141313,,神奈川県川崎市川崎区桜本１丁目１４−３,神奈川県,川崎市,川崎区桜本,,,,,,,,,,,,,,,,,,,,,,,,,,,,,,,,,,,,,,,,
141305,141305000143 ,神奈川県川崎市,大師公園,ﾀﾞｲｼｺｳｴﾝ,,,1003,,,141313,,神奈川県川崎市川崎区大師公園１,神奈川県,川崎市,川崎区大師公園,,,,,,,,,,,,,,,,,,,,,,,,,,,,,,,,,,,,,,,,
141305,141305000144 ,神奈川県川崎市,池上新田公園,ｲｹｶﾞﾐｼﾝﾃﾞﾝｺｳｴﾝ,,,1003,,,141313,,神奈川県川崎市川崎区池上町１−３,神奈川県,川崎市,川崎区池上町,,,,,,,,,,,,,,,,,,,,,,,,,,,,,,,,,,,,,,,,
141305,141305000145 ,神奈川県川崎市,"浮島町公園
（川崎区市民健康の森）","ｳｷｼﾏﾁｮｳｺｳｴﾝ
(ｶﾜｻｷｸｼﾐﾝｹﾝｺｳﾉﾓﾘ)",,,1003,,,141313,,神奈川県川崎市川崎区浮島町１２−７,神奈川県,川崎市,川崎区浮島町,,,,,,,,,,,,,,,,,,,,,,,,,,,,,,,,,,,,,,,,
141305,141305000146 ,神奈川県川崎市,小田公園,ｵﾀﾞｺｳｴﾝ,,,1003,,,141313,,神奈川県川崎市川崎区小田４丁目２０−３８,神奈川県,川崎市,川崎区小田,,,,,,,,,,,,,,,,,,,,,,,,,,,,,,,,,,,,,,,,
141305,141305000147 ,神奈川県川崎市,渡田新町公園,ﾜﾀﾘﾀﾞｼﾝﾁｮｳｺｳｴﾝ,,,1003,,,141313,,神奈川県川崎市川崎区渡田新町１丁目５−１,神奈川県,川崎市,川崎区渡田新町,,,,,,,,,,,,,,,,,,,,,,,,,,,,,,,,,,,,,,,,
141305,141305000148 ,神奈川県川崎市,浅田第２公園,ｱｻﾀﾞﾀﾞｲ2ｺｳｴﾝ,,,1003,,,141313,,神奈川県川崎市川崎区浅田１丁目２−４,神奈川県,川崎市,川崎区浅田,,,,,,,,,,,,,,,,,,,,,,,,,,,,,,,,,,,,,,,,
141305,141305000149 ,神奈川県川崎市,浅田町公園,ｱｻﾀﾞﾁｮｳｺｳｴﾝ,,,1003,,,141313,,神奈川県川崎市川崎区浅田４丁目１３−６,神奈川県,川崎市,川崎区浅田,,,,,,,,,,,,,,,,,,,,,,,,,,,,,,,,,,,,,,,,
141305,141305000150 ,神奈川県川崎市,浅田なかよし公園,ｱｻﾀﾞﾅｶﾖｼｺｳｴﾝ,,,1003,,,141313,,神奈川県川崎市川崎区浅田４丁目６−７,神奈川県,川崎市,川崎区浅田,,,,,,,,,,,,,,,,,,,,,,,,,,,,,,,,,,,,,,,,
141305,141305000151 ,神奈川県川崎市,旭町１丁目公園,ｱｻﾋﾁｮｳ1ﾁｮｳﾒｺｳｴﾝ,,,1003,,,141313,,神奈川県川崎市川崎区旭町１丁目８−５,神奈川県,川崎市,川崎区旭町,,,,,,,,,,,,,,,,,,,,,,,,,,,,,,,,,,,,,,,,
141305,141305000152 ,神奈川県川崎市,旭町公園,ｱｻﾋﾁｮｳｺｳｴﾝ,,,1003,,,141313,,神奈川県川崎市川崎区旭町２丁目１４−８,神奈川県,川崎市,川崎区旭町,,,,,,,,,,,,,,,,,,,,,,,,,,,,,,,,,,,,,,,,
141305,141305000153 ,神奈川県川崎市,池上新町２丁目公園,ｲｹｶﾞﾐｼﾝﾁｮｳ2ﾁｮｳﾒｺｳｴﾝ,,,1003,,,141313,,神奈川県川崎市川崎区池上新町２丁目２１,神奈川県,川崎市,川崎区池上新町,,,,,,,,,,,,,,,,,,,,,,,,,,,,,,,,,,,,,,,,
141305,141305000154 ,神奈川県川崎市,池田町公園,ｲｹﾀﾞﾁｮｳｺｳｴﾝ,,,1003,,,141313,,神奈川県川崎市川崎区池田１丁目１３−１,神奈川県,川崎市,川崎区池田,,,,,,,,,,,,,,,,,,,,,,,,,,,,,,,,,,,,,,,,
141305,141305000155 ,神奈川県川崎市,池田西公園,ｲｹﾀﾞﾆｼｺｳｴﾝ,,,1003,,,141313,,神奈川県川崎市川崎区池田１丁目５−１,神奈川県,川崎市,川崎区池田,,,,,,,,,,,,,,,,,,,,,,,,,,,,,,,,,,,,,,,,
141305,141305000156 ,神奈川県川崎市,伊勢町第１公園,ｲｾﾁｮｳﾀﾞｲ1ｺｳｴﾝ,,,1003,,,141313,,神奈川県川崎市川崎区伊勢町１２−１,神奈川県,川崎市,川崎区伊勢町,,,,,,,,,,,,,,,,,,,,,,,,,,,,,,,,,,,,,,,,
141305,141305000157 ,神奈川県川崎市,伊勢町第２公園,ｲｾﾁｮｳﾀﾞｲ2ｺｳｴﾝ,,,1003,,,141313,,神奈川県川崎市川崎区伊勢町２１−１,神奈川県,川崎市,川崎区伊勢町,,,,,,,,,,,,,,,,,,,,,,,,,,,,,,,,,,,,,,,,
141305,141305000158 ,神奈川県川崎市,稲毛公園,ｲﾅｹﾞｺｳｴﾝ,,,1003,,,141313,,神奈川県川崎市川崎区宮本町７−８,神奈川県,川崎市,川崎区宮本町,,,,,,,,,,,,,,,,,,,,,,,,,,,,,,,,,,,,,,,,
141305,141305000159 ,神奈川県川崎市,入江崎公園,ｲﾘｴｻﾞｷｺｳｴﾝ,,,1003,,,141313,,神奈川県川崎市川崎区塩浜３丁目１３−１,神奈川県,川崎市,川崎区塩浜,,,,,,,,,,,,,,,,,,,,,,,,,,,,,,,,,,,,,,,,
141305,141305000160 ,神奈川県川崎市,"姥ヶ森公園
（旧　東渡田第１公園）",ｳﾊﾞｶﾞﾓﾘｺｳｴﾝ,,,1003,,,141313,,神奈川県川崎市川崎区鋼管通３丁目１２−１,神奈川県,川崎市,川崎区鋼管通,,,,,,,,,,,,,,,,,,,,,,,,,,,,,,,,,,,,,,,,
141305,141305000161 ,神奈川県川崎市,江川こども公園,ｴｶﾞﾜｺﾄﾞﾓｺｳｴﾝ,,,1003,,,141313,,神奈川県川崎市川崎区江川２丁目１５,神奈川県,川崎市,川崎区江川,,,,,,,,,,,,,,,,,,,,,,,,,,,,,,,,,,,,,,,,
141305,141305000162 ,神奈川県川崎市,江川はなみずき公園,ｴｶﾞﾜﾊﾅﾐｽﾞｷｺｳｴﾝ,,,1003,,,141313,,神奈川県川崎市川崎区江川２丁目１０,神奈川県,川崎市,川崎区江川,,,,,,,,,,,,,,,,,,,,,,,,,,,,,,,,,,,,,,,,
141305,141305000163 ,神奈川県川崎市,"江川ふれあい公園
（旧　田町公園）",ｴｶﾞﾜﾌﾚｱｲｺｳｴﾝ,,,1003,,,141313,,神奈川県川崎市川崎区江川１丁目７,神奈川県,川崎市,川崎区江川,,,,,,,,,,,,,,,,,,,,,,,,,,,,,,,,,,,,,,,,
141305,141305000164 ,神奈川県川崎市,大島第１公園,ｵｵｼﾏﾀﾞｲ1ｺｳｴﾝ,,,1003,,,141313,,神奈川県川崎市川崎区大島５丁目９−６,神奈川県,川崎市,川崎区大島,,,,,,,,,,,,,,,,,,,,,,,,,,,,,,,,,,,,,,,,
141305,141305000165 ,神奈川県川崎市,大島第２公園,ｵｵｼﾏﾀﾞｲ2ｺｳｴﾝ,,,1003,,,141313,,神奈川県川崎市川崎区大島５丁目２３−１,神奈川県,川崎市,川崎区大島,,,,,,,,,,,,,,,,,,,,,,,,,,,,,,,,,,,,,,,,
141305,141305000166 ,神奈川県川崎市,大島第３公園,ｵｵｼﾏﾀﾞｲ3ｺｳｴﾝ,,,1003,,,141313,,神奈川県川崎市川崎区大島３丁目３１−１,神奈川県,川崎市,川崎区大島,,,,,,,,,,,,,,,,,,,,,,,,,,,,,,,,,,,,,,,,
141305,141305000167 ,神奈川県川崎市,大島第４公園,ｵｵｼﾏﾀﾞｲ4ｺｳｴﾝ,,,1003,,,141313,,神奈川県川崎市川崎区大島２丁目９−１,神奈川県,川崎市,川崎区大島,,,,,,,,,,,,,,,,,,,,,,,,,,,,,,,,,,,,,,,,
141305,141305000168 ,神奈川県川崎市,大島第５公園,ｵｵｼﾏﾀﾞｲ5ｺｳｴﾝ,,,1003,,,141313,,神奈川県川崎市川崎区追分町７−１,神奈川県,川崎市,川崎区追分町,,,,,,,,,,,,,,,,,,,,,,,,,,,,,,,,,,,,,,,,
141305,141305000169 ,神奈川県川崎市,大島第６公園,ｵｵｼﾏﾀﾞｲ6ｺｳｴﾝ,,,1003,,,141313,,神奈川県川崎市川崎区大島１丁目３−１５,神奈川県,川崎市,川崎区大島,,,,,,,,,,,,,,,,,,,,,,,,,,,,,,,,,,,,,,,,
141305,141305000170 ,神奈川県川崎市,大島とんぼ公園,ｵｵｼﾏﾄﾝﾎﾞｺｳｴﾝ,,,1003,,,141313,,神奈川県川崎市川崎区大島４丁目３−５,神奈川県,川崎市,川崎区大島,,,,,,,,,,,,,,,,,,,,,,,,,,,,,,,,,,,,,,,,
141305,141305000171 ,神奈川県川崎市,大島４丁目公園,ｵｵｼﾏ4ﾁｮｳﾒｺｳｴﾝ,,,1003,,,141313,,神奈川県川崎市川崎区大島４丁目４−６,神奈川県,川崎市,川崎区大島,,,,,,,,,,,,,,,,,,,,,,,,,,,,,,,,,,,,,,,,
141305,141305000172 ,神奈川県川崎市,小田１丁目中央公園,ｵﾀﾞ1ﾁｮｳﾒﾁｭｳｵｳｺｳｴﾝ,,,1003,,,141313,,神奈川県川崎市川崎区小田１丁目２２−１,神奈川県,川崎市,川崎区小田,,,,,,,,,,,,,,,,,,,,,,,,,,,,,,,,,,,,,,,,
141305,141305000173 ,神奈川県川崎市,小田３丁目公園,ｵﾀﾞ3ﾁｮｳﾒｺｳｴﾝ,,,1003,,,141313,,神奈川県川崎市川崎区小田３丁目１５,神奈川県,川崎市,川崎区小田,,,,,,,,,,,,,,,,,,,,,,,,,,,,,,,,,,,,,,,,
141305,141305000174 ,神奈川県川崎市,小田５丁目公園,ｵﾀﾞ5ﾁｮｳﾒｺｳｴﾝ,,,1003,,,141313,,神奈川県川崎市川崎区小田５丁目１７,神奈川県,川崎市,川崎区小田,,,,,,,,,,,,,,,,,,,,,,,,,,,,,,,,,,,,,,,,
141305,141305000175 ,神奈川県川崎市,小田７丁目公園,ｵﾀﾞ7ﾁｮｳﾒｺｳｴﾝ,,,1003,,,141313,,神奈川県川崎市川崎区小田７丁目３−４,神奈川県,川崎市,川崎区小田,,,,,,,,,,,,,,,,,,,,,,,,,,,,,,,,,,,,,,,,
141305,141305000176 ,神奈川県川崎市,小田７丁目南公園,ｵﾀﾞ7ﾁｮｳﾒﾐﾅﾐｺｳｴﾝ,,,1003,,,141313,,神奈川県川崎市川崎区小田７丁目１,神奈川県,川崎市,川崎区小田,,,,,,,,,,,,,,,,,,,,,,,,,,,,,,,,,,,,,,,,
141305,141305000177 ,神奈川県川崎市,小田川公園,ｵﾀﾞｶﾞﾜｺｳｴﾝ,,,1003,,,141313,,神奈川県川崎市川崎区小田６丁目８,神奈川県,川崎市,川崎区小田,,,,,,,,,,,,,,,,,,,,,,,,,,,,,,,,,,,,,,,,
141305,141305000178 ,神奈川県川崎市,小田栄公園,ｵﾀﾞｻｶｴｺｳｴﾝ,,,1003,,,141313,,神奈川県川崎市川崎区小田栄１丁目８−１１,神奈川県,川崎市,川崎区小田栄,,,,,,,,,,,,,,,,,,,,,,,,,,,,,,,,,,,,,,,,
141305,141305000179 ,神奈川県川崎市,小田栄２丁目公園,ｵﾀﾞｻｶｴｺｳｴﾝ,,,1003,,,141313,,神奈川県川崎市川崎区小田栄２丁目１,神奈川県,川崎市,川崎区小田栄,,,,,,,,,,,,,,,,,,,,,,,,,,,,,,,,,,,,,,,,
141305,141305000180 ,神奈川県川崎市,小田第１公園,ｵﾀﾞﾀﾞｲ1ｺｳｴﾝ,,,1003,,,141313,,神奈川県川崎市川崎区小田１丁目９−１２,神奈川県,川崎市,川崎区小田,,,,,,,,,,,,,,,,,,,,,,,,,,,,,,,,,,,,,,,,
141305,141305000181 ,神奈川県川崎市,小田第２公園,ｵﾀﾞﾀﾞｲ2ｺｳｴﾝ,,,1003,,,141313,,神奈川県川崎市川崎区小田３丁目１９−１１,神奈川県,川崎市,川崎区小田,,,,,,,,,,,,,,,,,,,,,,,,,,,,,,,,,,,,,,,,
141305,141305000182 ,神奈川県川崎市,貝塚公園,ｶｲﾂﾞｶｺｳｴﾝ,,,1003,,,141313,,神奈川県川崎市川崎区貝塚１丁目８−７,神奈川県,川崎市,川崎区貝塚,,,,,,,,,,,,,,,,,,,,,,,,,,,,,,,,,,,,,,,,
141305,141305000183 ,神奈川県川崎市,上並木公園,ｶﾐﾅﾐｷｺｳｴﾝ,,,1003,,,141313,,神奈川県川崎市川崎区日進町８−１４,神奈川県,川崎市,川崎区日進町,,,,,,,,,,,,,,,,,,,,,,,,,,,,,,,,,,,,,,,,
141305,141305000184 ,神奈川県川崎市,川中島公園,ｶﾜﾅｶｼﾞﾏｺｳｴﾝ,,,1003,,,141313,,神奈川県川崎市川崎区川中島１丁目１０−１６,神奈川県,川崎市,川崎区川中島,,,,,,,,,,,,,,,,,,,,,,,,,,,,,,,,,,,,,,,,
141305,141305000185 ,神奈川県川崎市,観音町公園,ｶﾝﾉﾝﾁｮｳｺｳｴﾝ,,,1003,,,141313,,神奈川県川崎市川崎区観音２丁目１６−１,神奈川県,川崎市,川崎区観音,,,,,,,,,,,,,,,,,,,,,,,,,,,,,,,,,,,,,,,,
141305,141305000186 ,神奈川県川崎市,観音町第２公園,ｶﾝﾉﾝﾁｮｳﾀﾞｲ2ｺｳｴﾝ,,,1003,,,141313,,神奈川県川崎市川崎区観音１丁目１０−１３,神奈川県,川崎市,川崎区観音,,,,,,,,,,,,,,,,,,,,,,,,,,,,,,,,,,,,,,,,
141305,141305000187 ,神奈川県川崎市,北ノ崎公園,ｷﾀﾉｻｷｺｳｴﾝ,,,1003,,,141313,,神奈川県川崎市川崎区塩浜２丁目１５−１,神奈川県,川崎市,川崎区塩浜,,,,,,,,,,,,,,,,,,,,,,,,,,,,,,,,,,,,,,,,
141305,141305000188 ,神奈川県川崎市,京町１丁目公園,ｷｮｳﾏﾁ1ﾁｮｳﾒｺｳｴﾝ,,,1003,,,141313,,神奈川県川崎市川崎区京町１丁目１２−４,神奈川県,川崎市,川崎区京町,,,,,,,,,,,,,,,,,,,,,,,,,,,,,,,,,,,,,,,,
141305,141305000189 ,神奈川県川崎市,京町公園,ｷｮｳﾏﾁｺｳｴﾝ,,,1003,,,141313,,神奈川県川崎市川崎区京町１丁目２−１９,神奈川県,川崎市,川崎区京町,,,,,,,,,,,,,,,,,,,,,,,,,,,,,,,,,,,,,,,,
141305,141305000190 ,神奈川県川崎市,京町第２公園,ｷｮｳﾏﾁﾀﾞｲ2ｺｳｴﾝ,,,1003,,,141313,,神奈川県川崎市川崎区京町３丁目１４,神奈川県,川崎市,川崎区京町,,,,,,,,,,,,,,,,,,,,,,,,,,,,,,,,,,,,,,,,
141305,141305000191 ,神奈川県川崎市,京町第３公園,ｷｮｳﾏﾁﾀﾞｲ3ｺｳｴﾝ,,,1003,,,141313,,神奈川県川崎市川崎区京町１丁目１２−９,神奈川県,川崎市,川崎区京町,,,,,,,,,,,,,,,,,,,,,,,,,,,,,,,,,,,,,,,,
141305,141305000192 ,神奈川県川崎市,京町第４公園,ｷｮｳﾏﾁﾀﾞｲ4ｺｳｴﾝ,,,1003,,,141313,,神奈川県川崎市川崎区京町３丁目１３−４,神奈川県,川崎市,川崎区京町,,,,,,,,,,,,,,,,,,,,,,,,,,,,,,,,,,,,,,,,
141305,141305000193 ,神奈川県川崎市,京町第５公園,ｷｮｳﾏﾁﾀﾞｲ5ｺｳｴﾝ,,,1003,,,141313,,神奈川県川崎市川崎区京町３丁目１３−５,神奈川県,川崎市,川崎区京町,,,,,,,,,,,,,,,,,,,,,,,,,,,,,,,,,,,,,,,,
141305,141305000194 ,神奈川県川崎市,京町南公園,ｷｮｳﾏﾁﾐﾅﾐｺｳｴﾝ,,,1003,,,141313,,神奈川県川崎市川崎区京町３丁目３２,神奈川県,川崎市,川崎区京町,,,,,,,,,,,,,,,,,,,,,,,,,,,,,,,,,,,,,,,,
141305,141305000195 ,神奈川県川崎市,京町ももたろう公園,ｷｮｳﾏﾁﾓﾓﾀﾛｳｺｳｴﾝ,,,1003,,,141313,,神奈川県川崎市川崎区京町３丁目１０−１,神奈川県,川崎市,川崎区京町,,,,,,,,,,,,,,,,,,,,,,,,,,,,,,,,,,,,,,,,
141305,141305000196 ,神奈川県川崎市,鋼管通第１公園,ｺｳｶﾝﾄﾞｳﾘﾀﾞｲ1ｺｳｴﾝ,,,1003,,,141313,,神奈川県川崎市川崎区鋼管通２丁目１７−１,神奈川県,川崎市,川崎区鋼管通,,,,,,,,,,,,,,,,,,,,,,,,,,,,,,,,,,,,,,,,
141305,141305000197 ,神奈川県川崎市,小島新田公園,ｺｼﾞﾏｼﾝﾃﾞﾝｺｳｴﾝ,,,1003,,,141313,,神奈川県川崎市川崎区田町３丁目１１−１,神奈川県,川崎市,川崎区田町,,,,,,,,,,,,,,,,,,,,,,,,,,,,,,,,,,,,,,,,
141305,141305000198 ,神奈川県川崎市,桜本公園,ｻｸﾗﾓﾄｺｳｴﾝ,,,1003,,,141313,,神奈川県川崎市川崎区桜本２丁目３３−５,神奈川県,川崎市,川崎区桜本,,,,,,,,,,,,,,,,,,,,,,,,,,,,,,,,,,,,,,,,
141305,141305000199 ,神奈川県川崎市,塩浜町北公園,ｼｵﾊﾏﾁｮｳｷﾀｺｳｴﾝ,,,1003,,,141313,,神奈川県川崎市川崎区塩浜１丁目１５,神奈川県,川崎市,川崎区塩浜,,,,,,,,,,,,,,,,,,,,,,,,,,,,,,,,,,,,,,,,
141305,141305000200 ,神奈川県川崎市,塩浜町公園,ｼｵﾊﾏﾁｮｳｺｳｴﾝ,,,1003,,,141313,,神奈川県川崎市川崎区塩浜１丁目４−１,神奈川県,川崎市,川崎区塩浜,,,,,,,,,,,,,,,,,,,,,,,,,,,,,,,,,,,,,,,,
141305,141305000201 ,神奈川県川崎市,塩浜橋公園,ｼｵﾊﾏﾊﾞｼｺｳｴﾝ,,,1003,,,141313,,神奈川県川崎市川崎区塩浜２丁目７−１２,神奈川県,川崎市,川崎区塩浜,,,,,,,,,,,,,,,,,,,,,,,,,,,,,,,,,,,,,,,,
141305,141305000202 ,神奈川県川崎市,塩浜はなの木公園,ｼｵﾊﾏﾊﾅﾉｷｺｳｴﾝ,,,1003,,,141313,,神奈川県川崎市川崎区塩浜１丁目１６,神奈川県,川崎市,川崎区塩浜,,,,,,,,,,,,,,,,,,,,,,,,,,,,,,,,,,,,,,,,
141305,141305000203 ,神奈川県川崎市,下河原公園,ｼﾓｶﾜﾗｺｳｴﾝ,,,1003,,,141313,,神奈川県川崎市川崎区殿町３丁目２４−１,神奈川県,川崎市,川崎区殿町,,,,,,,,,,,,,,,,,,,,,,,,,,,,,,,,,,,,,,,,
141305,141305000204 ,神奈川県川崎市,下並木公園,ｼﾓﾅﾐｷｺｳｴﾝ,,,1003,,,141313,,神奈川県川崎市川崎区下並木３７−３,神奈川県,川崎市,川崎区下並木,,,,,,,,,,,,,,,,,,,,,,,,,,,,,,,,,,,,,,,,
141305,141305000205 ,神奈川県川崎市,昭和北公園,ｼｮｳﾜｷﾀｺｳｴﾝ,,,1003,,,141313,,神奈川県川崎市川崎区昭和１丁目５５,神奈川県,川崎市,川崎区昭和,,,,,,,,,,,,,,,,,,,,,,,,,,,,,,,,,,,,,,,,
141305,141305000206 ,神奈川県川崎市,新町公園,ｼﾝﾁｮｳｺｳｴﾝ,,,1003,,,141313,,神奈川県川崎市川崎区渡田新町３丁目４−１,神奈川県,川崎市,川崎区渡田新町,,,,,,,,,,,,,,,,,,,,,,,,,,,,,,,,,,,,,,,,
141305,141305000207 ,神奈川県川崎市,大師河原公園,ﾀﾞｲｼｶﾞﾜﾗｺｳｴﾝ,,,1003,,,141313,,神奈川県川崎市川崎区大師河原１丁目４８６１−２７,神奈川県,川崎市,川崎区大師河原,,,,,,,,,,,,,,,,,,,,,,,,,,,,,,,,,,,,,,,,
141305,141305000208 ,神奈川県川崎市,大師河原１丁目公園,ﾀﾞｲｼｶﾞﾜﾗ1ﾁｮｳﾒｺｳｴﾝ,,,1003,,,141313,,神奈川県川崎市川崎区大師河原１丁目２３４３ー１７,神奈川県,川崎市,川崎区大師河原,,,,,,,,,,,,,,,,,,,,,,,,,,,,,,,,,,,,,,,,
141305,141305000209 ,神奈川県川崎市,大師西町公園,ﾀﾞｲｼﾆｼﾏﾁｺｳｴﾝ,,,1003,,,141313,,神奈川県川崎市川崎区大師駅前２丁目６−１,神奈川県,川崎市,川崎区大師駅前,,,,,,,,,,,,,,,,,,,,,,,,,,,,,,,,,,,,,,,,
141305,141305000210 ,神奈川県川崎市,大師本町公園,ﾀﾞｲｼﾎﾝﾁｮｳｺｳｴﾝ,,,1003,,,141313,,神奈川県川崎市川崎区大師本町４,神奈川県,川崎市,川崎区大師本町,,,,,,,,,,,,,,,,,,,,,,,,,,,,,,,,,,,,,,,,
141305,141305000211 ,神奈川県川崎市,鷹取公園,ﾀｶﾄﾘｺｳｴﾝ,,,1003,,,141313,,神奈川県川崎市川崎区塩浜４丁目９−１,神奈川県,川崎市,川崎区塩浜,,,,,,,,,,,,,,,,,,,,,,,,,,,,,,,,,,,,,,,,
141305,141305000212 ,神奈川県川崎市,田島公園,ﾀｼﾞﾏｺｳｴﾝ,,,1003,,,141313,,神奈川県川崎市川崎区大島上町６−７,神奈川県,川崎市,川崎区大島上町,,,,,,,,,,,,,,,,,,,,,,,,,,,,,,,,,,,,,,,,
141305,141305000213 ,神奈川県川崎市,田島こども公園,ﾀｼﾞﾏｺﾄﾞﾓｺｳｴﾝ,,,1003,,,141313,,神奈川県川崎市川崎区田島町２−６,神奈川県,川崎市,川崎区田島町,,,,,,,,,,,,,,,,,,,,,,,,,,,,,,,,,,,,,,,,
141305,141305000214 ,神奈川県川崎市,"田島ふれあい公園
（旧　東渡田第３公園）",ﾀｼﾞﾏﾌﾚｱｲｺｳｴﾝ,,,1003,,,141313,,神奈川県川崎市川崎区田島町１５−４,神奈川県,川崎市,川崎区田島町,,,,,,,,,,,,,,,,,,,,,,,,,,,,,,,,,,,,,,,,
141305,141305000215 ,神奈川県川崎市,田町ふれあい公園,ﾀﾏﾁﾌﾚｱｲｺｳｴﾝ,,,1003,,,141313,,神奈川県川崎市川崎区田町２丁目４,神奈川県,川崎市,川崎区田町,,,,,,,,,,,,,,,,,,,,,,,,,,,,,,,,,,,,,,,,
141305,141305000216 ,神奈川県川崎市,出来野公園,ﾃﾞｷﾉｺｳｴﾝ,,,1003,,,141313,,神奈川県川崎市川崎区日ノ出２丁目１７−３,神奈川県,川崎市,川崎区日ノ出,,,,,,,,,,,,,,,,,,,,,,,,,,,,,,,,,,,,,,,,
141305,141305000217 ,神奈川県川崎市,出来野第１公園,ﾃﾞｷﾉﾀﾞｲ1ｺｳｴﾝ,,,1003,,,141313,,神奈川県川崎市川崎区出来野８−８,神奈川県,川崎市,川崎区出来野,,,,,,,,,,,,,,,,,,,,,,,,,,,,,,,,,,,,,,,,
141305,141305000218 ,神奈川県川崎市,天飛公園,ﾃﾝﾋﾟｺｳｴﾝ,,,1003,,,141313,,神奈川県川崎市川崎区渡田４丁目１２,神奈川県,川崎市,川崎区渡田,,,,,,,,,,,,,,,,,,,,,,,,,,,,,,,,,,,,,,,,
141305,141305000219 ,神奈川県川崎市,殿町１丁目公園,ﾄﾉﾏﾁ1ﾁｮｳﾒｺｳｴﾝ,,,1003,,,141313,,神奈川県川崎市川崎区殿町１丁目２０−４５,神奈川県,川崎市,川崎区殿町,,,,,,,,,,,,,,,,,,,,,,,,,,,,,,,,,,,,,,,,
141305,141305000220 ,神奈川県川崎市,殿町第１公園,ﾄﾉﾏﾁﾀﾞｲ1ｺｳｴﾝ,,,1003,,,141313,,神奈川県川崎市川崎区殿町２丁目４−７,神奈川県,川崎市,川崎区殿町,,,,,,,,,,,,,,,,,,,,,,,,,,,,,,,,,,,,,,,,
141305,141305000221 ,神奈川県川崎市,殿町第２公園,ﾄﾉﾏﾁﾀﾞｲ2ｺｳｴﾝ,,,1003,,,141313,,神奈川県川崎市川崎区殿町３丁目１４−１ほか,神奈川県,川崎市,川崎区殿町,,,,,,,,,,,,,,,,,,,,,,,,,,,,,,,,,,,,,,,,
141305,141305000222 ,神奈川県川崎市,殿町第３公園,ﾄﾉﾏﾁﾀﾞｲ3ｺｳｴﾝ,,,1003,,,141313,,神奈川県川崎市川崎区殿町３丁目１,神奈川県,川崎市,川崎区殿町,,,,,,,,,,,,,,,,,,,,,,,,,,,,,,,,,,,,,,,,
141305,141305000223 ,神奈川県川崎市,中島公園,ﾅｶｼﾞﾏｺｳｴﾝ,,,1003,,,141313,,神奈川県川崎市川崎区中島２丁目１５−２,神奈川県,川崎市,川崎区中島,,,,,,,,,,,,,,,,,,,,,,,,,,,,,,,,,,,,,,,,
141305,141305000224 ,神奈川県川崎市,中瀬２丁目公園,ﾅｶｾ2ﾁｮｳﾒｺｳｴﾝ,,,1003,,,141313,,神奈川県川崎市川崎区中瀬２丁目１４−１４,神奈川県,川崎市,川崎区中瀬,,,,,,,,,,,,,,,,,,,,,,,,,,,,,,,,,,,,,,,,
141305,141305000225 ,神奈川県川崎市,中瀬公園,ﾅｶｾｺｳｴﾝ,,,1003,,,141313,,神奈川県川崎市川崎区中瀬３丁目５−２,神奈川県,川崎市,川崎区中瀬,,,,,,,,,,,,,,,,,,,,,,,,,,,,,,,,,,,,,,,,
141305,141305000226 ,神奈川県川崎市,中瀬第２公園,ﾅｶｾﾀﾞｲ2ｺｳｴﾝ,,,1003,,,141313,,神奈川県川崎市川崎区中瀬２丁目９−１１,神奈川県,川崎市,川崎区中瀬,,,,,,,,,,,,,,,,,,,,,,,,,,,,,,,,,,,,,,,,
141305,141305000227 ,神奈川県川崎市,中瀬つつじ公園,ﾅｶｾﾂﾂｼﾞｺｳｴﾝ,,,1003,,,141313,,神奈川県川崎市川崎区中瀬２丁目１３,神奈川県,川崎市,川崎区中瀬,,,,,,,,,,,,,,,,,,,,,,,,,,,,,,,,,,,,,,,,
141305,141305000228 ,神奈川県川崎市,中留公園,ﾅｶﾄﾞﾒｺｳｴﾝ,,,1003,,,141313,,神奈川県川崎市川崎区池上新町１丁目４−１,神奈川県,川崎市,川崎区池上新町,,,,,,,,,,,,,,,,,,,,,,,,,,,,,,,,,,,,,,,,
141305,141305000229 ,神奈川県川崎市,"中浜公園
（旧　四谷公園）",ﾅｶﾊﾏｺｳｴﾝ,,,1003,,,141313,,神奈川県川崎市川崎区塩浜２丁目３−１,神奈川県,川崎市,川崎区塩浜,,,,,,,,,,,,,,,,,,,,,,,,,,,,,,,,,,,,,,,,
141305,141305000230 ,神奈川県川崎市,"西小田公園
（旧小田ふれあい公園）",ﾆｼｵﾀﾞｺｳｴﾝ,,,1003,,,141313,,神奈川県川崎市川崎区小田１丁目１３,神奈川県,川崎市,川崎区小田,,,,,,,,,,,,,,,,,,,,,,,,,,,,,,,,,,,,,,,,
141305,141305000231 ,神奈川県川崎市,日進町公園,ﾆｯｼﾝﾁｮｳｺｳｴﾝ,,,1003,,,141313,,神奈川県川崎市川崎区日進町２−１４,神奈川県,川崎市,川崎区日進町,,,,,,,,,,,,,,,,,,,,,,,,,,,,,,,,,,,,,,,,
141305,141305000232 ,神奈川県川崎市,日進町中央公園,ﾆｯｼﾝﾁｮｳﾁｭｳｵｳｺｳｴﾝ,,,1003,,,141313,,神奈川県川崎市川崎区日進町２３−２３,神奈川県,川崎市,川崎区日進町,,,,,,,,,,,,,,,,,,,,,,,,,,,,,,,,,,,,,,,,
141305,141305000233 ,神奈川県川崎市,浜川崎公園,ﾊﾏｶﾜｻｷｺｳｴﾝ,,,1003,,,141313,,神奈川県川崎市川崎区浜町４丁目４−１,神奈川県,川崎市,川崎区浜町,,,,,,,,,,,,,,,,,,,,,,,,,,,,,,,,,,,,,,,,
141305,141305000234 ,神奈川県川崎市,浜町公園,ﾊﾏﾁｮｳｺｳｴﾝ,,,1003,,,141313,,神奈川県川崎市川崎区浜町１丁目５−２,神奈川県,川崎市,川崎区浜町,,,,,,,,,,,,,,,,,,,,,,,,,,,,,,,,,,,,,,,,
141305,141305000235 ,神奈川県川崎市,浜町第２公園,ﾊﾏﾁｮｳﾀﾞｲ2ｺｳｴﾝ,,,1003,,,141313,,神奈川県川崎市川崎区浜町２丁目１−４,神奈川県,川崎市,川崎区浜町,,,,,,,,,,,,,,,,,,,,,,,,,,,,,,,,,,,,,,,,
141305,141305000236 ,神奈川県川崎市,"浜町第３公園
（旧　鋼管通第２公園）",ﾊﾏﾁｮｳﾀﾞｲ3ｺｳｴﾝ,,,1003,,,141313,,神奈川県川崎市川崎区浜町２丁目１６−１,神奈川県,川崎市,川崎区浜町,,,,,,,,,,,,,,,,,,,,,,,,,,,,,,,,,,,,,,,,
141305,141305000237 ,神奈川県川崎市,浜町なかよし公園,ﾊﾏﾁｮｳﾅｶﾖｼｺｳｴﾝ,,,1003,,,141313,,神奈川県川崎市川崎区浜町２丁目１３,神奈川県,川崎市,川崎区浜町,,,,,,,,,,,,,,,,,,,,,,,,,,,,,,,,,,,,,,,,
141305,141305000238 ,神奈川県川崎市,東小田公園,ﾋｶﾞｼｵﾀﾞｺｳｴﾝ,,,1003,,,141313,,神奈川県川崎市川崎区小田５丁目１３−１,神奈川県,川崎市,川崎区小田,,,,,,,,,,,,,,,,,,,,,,,,,,,,,,,,,,,,,,,,
141305,141305000239 ,神奈川県川崎市,東田公園,ﾋｶﾞｼﾀﾞｺｳｴﾝ,,,1003,,,141313,,神奈川県川崎市川崎区東田町３−２５,神奈川県,川崎市,川崎区東田町,,,,,,,,,,,,,,,,,,,,,,,,,,,,,,,,,,,,,,,,
141305,141305000240 ,神奈川県川崎市,東町公園,ﾋｶﾞｼﾁｮｳｺｳｴﾝ,,,1003,,,141313,,神奈川県川崎市川崎区本町１丁目１−６,神奈川県,川崎市,川崎区本町,,,,,,,,,,,,,,,,,,,,,,,,,,,,,,,,,,,,,,,,
141305,141305000241 ,神奈川県川崎市,東門前公園,ﾋｶﾞｼﾓﾝｾﾞﾝｺｳｴﾝ,,,1003,,,141313,,神奈川県川崎市川崎区東門前１丁目７−１,神奈川県,川崎市,川崎区東門前,,,,,,,,,,,,,,,,,,,,,,,,,,,,,,,,,,,,,,,,
141305,141305000242 ,神奈川県川崎市,東渡田第２公園,ﾋｶﾞｼﾜﾀﾘﾀﾞﾀﾞｲ2ｺｳｴﾝ,,,1003,,,141313,,神奈川県川崎市川崎区鋼管通１丁目８−１,神奈川県,川崎市,川崎区鋼管通,,,,,,,,,,,,,,,,,,,,,,,,,,,,,,,,,,,,,,,,
141305,141305000243 ,神奈川県川崎市,日ノ出公園,ﾋﾉﾃﾞｺｳｴﾝ,,,1003,,,141313,,神奈川県川崎市川崎区日ノ出２丁目１１−１,神奈川県,川崎市,川崎区日ノ出,,,,,,,,,,,,,,,,,,,,,,,,,,,,,,,,,,,,,,,,
141305,141305000244 ,神奈川県川崎市,藤崎けやき公園,ﾌｼﾞｻｷｹﾔｷｺｳｴﾝ,,,1003,,,141313,,神奈川県川崎市川崎区藤崎２丁目１１−３,神奈川県,川崎市,川崎区藤崎,,,,,,,,,,,,,,,,,,,,,,,,,,,,,,,,,,,,,,,,
141305,141305000245 ,神奈川県川崎市,藤崎第１公園,ﾌｼﾞｻｷﾀﾞｲ1ｺｳｴﾝ,,,1003,,,141313,,神奈川県川崎市川崎区藤崎４丁目１７−１６,神奈川県,川崎市,川崎区藤崎,,,,,,,,,,,,,,,,,,,,,,,,,,,,,,,,,,,,,,,,
141305,141305000246 ,神奈川県川崎市,藤崎第２公園,ﾌｼﾞｻｷﾀﾞｲ2ｺｳｴﾝ,,,1003,,,141313,,神奈川県川崎市川崎区藤崎２丁目１６−２,神奈川県,川崎市,川崎区藤崎,,,,,,,,,,,,,,,,,,,,,,,,,,,,,,,,,,,,,,,,
141305,141305000247 ,神奈川県川崎市,藤崎第３公園,ﾌｼﾞｻｷﾀﾞｲ3ｺｳｴﾝ,,,1003,,,141313,,神奈川県川崎市川崎区藤崎２丁目６−１,神奈川県,川崎市,川崎区藤崎,,,,,,,,,,,,,,,,,,,,,,,,,,,,,,,,,,,,,,,,
141305,141305000248 ,神奈川県川崎市,藤崎第４公園,ﾌｼﾞｻｷﾀﾞｲ4ｺｳｴﾝ,,,1003,,,141313,,神奈川県川崎市川崎区藤崎４丁目２−１,神奈川県,川崎市,川崎区藤崎,,,,,,,,,,,,,,,,,,,,,,,,,,,,,,,,,,,,,,,,
141305,141305000249 ,神奈川県川崎市,藤崎第５公園,ﾌｼﾞｻｷﾀﾞｲ5ｺｳｴﾝ,,,1003,,,141313,,神奈川県川崎市川崎区藤崎３丁目３−８,神奈川県,川崎市,川崎区藤崎,,,,,,,,,,,,,,,,,,,,,,,,,,,,,,,,,,,,,,,,
141305,141305000250 ,神奈川県川崎市,藤崎第６公園,ﾌｼﾞｻｷﾀﾞｲ6ｺｳｴﾝ,,,1003,,,141313,,神奈川県川崎市川崎区藤崎１丁目１３−３５,神奈川県,川崎市,川崎区藤崎,,,,,,,,,,,,,,,,,,,,,,,,,,,,,,,,,,,,,,,,
141305,141305000251 ,神奈川県川崎市,藤崎つつじ公園,ﾌｼﾞｻｷﾂﾂｼﾞｺｳｴﾝ,,,1003,,,141313,,神奈川県川崎市川崎区藤崎３丁目１−４,神奈川県,川崎市,川崎区藤崎,,,,,,,,,,,,,,,,,,,,,,,,,,,,,,,,,,,,,,,,
141305,141305000252 ,神奈川県川崎市,藤崎ゆりの木公園,ﾌｼﾞｻｷﾕﾘﾉｷｺｳｴﾝ,,,1003,,,141313,,神奈川県川崎市川崎区藤崎３丁目２,神奈川県,川崎市,川崎区藤崎,,,,,,,,,,,,,,,,,,,,,,,,,,,,,,,,,,,,,,,,
141305,141305000253 ,神奈川県川崎市,富士見１丁目公園,ﾌｼﾞﾐ1ﾁｮｳﾒｺｳｴﾝ,,,1003,,,141313,,神奈川県川崎市川崎区富士見１丁目２−４,神奈川県,川崎市,川崎区富士見,,,,,,,,,,,,,,,,,,,,,,,,,,,,,,,,,,,,,,,,
141305,141305000254 ,神奈川県川崎市,本町公園,ﾎﾝﾁｮｳｺｳｴﾝ,,,1003,,,141313,,神奈川県川崎市川崎区本町２丁目１２−１１,神奈川県,川崎市,川崎区本町,,,,,,,,,,,,,,,,,,,,,,,,,,,,,,,,,,,,,,,,
141305,141305000255 ,神奈川県川崎市,本町つつじ公園,ﾎﾝﾁｮｳﾂﾂｼﾞｺｳｴﾝ,,,1003,,,141313,,神奈川県川崎市川崎区本町２丁目２−６,神奈川県,川崎市,川崎区本町,,,,,,,,,,,,,,,,,,,,,,,,,,,,,,,,,,,,,,,,
141305,141305000256 ,神奈川県川崎市,港町公園,ﾐﾅﾄﾁｮｳｺｳｴﾝ,,,1003,,,141313,,神奈川県川崎市川崎区港町１２−６,神奈川県,川崎市,川崎区港町,,,,,,,,,,,,,,,,,,,,,,,,,,,,,,,,,,,,,,,,
141305,141305000257 ,神奈川県川崎市,南小田公園,ﾐﾅﾐｵﾀﾞｺｳｴﾝ,,,1003,,,141313,,神奈川県川崎市川崎区小田４丁目６−１,神奈川県,川崎市,川崎区小田,,,,,,,,,,,,,,,,,,,,,,,,,,,,,,,,,,,,,,,,
141305,141305000258 ,神奈川県川崎市,南町公園,ﾐﾅﾐﾁｮｳｺｳｴﾝ,,,1003,,,141313,,神奈川県川崎市川崎区南町６−１,神奈川県,川崎市,川崎区南町,,,,,,,,,,,,,,,,,,,,,,,,,,,,,,,,,,,,,,,,
141305,141305000259 ,神奈川県川崎市,冥加公園,ﾐｮｳｶﾞｺｳｴﾝ,,,1003,,,141313,,神奈川県川崎市川崎区池上新町２丁目２３−１,神奈川県,川崎市,川崎区池上新町,,,,,,,,,,,,,,,,,,,,,,,,,,,,,,,,,,,,,,,,
141305,141305000260 ,神奈川県川崎市,向町公園,ﾑｶｲﾁｮｳｺｳｴﾝ,,,1003,,,141313,,神奈川県川崎市川崎区渡田３丁目６−１,神奈川県,川崎市,川崎区渡田,,,,,,,,,,,,,,,,,,,,,,,,,,,,,,,,,,,,,,,,
141305,141305000261 ,神奈川県川崎市,四谷上町けやき公園,ﾖﾂﾔｶﾐﾁｮｳｹﾔｷｺｳｴﾝ,,,1003,,,141313,,神奈川県川崎市川崎区四谷上町２２−６,神奈川県,川崎市,川崎区四谷上町,,,,,,,,,,,,,,,,,,,,,,,,,,,,,,,,,,,,,,,,
141305,141305000262 ,神奈川県川崎市,四谷上町公園,ﾖﾂﾔｶﾐﾁｮｳｺｳｴﾝ,,,1003,,,141313,,神奈川県川崎市川崎区四谷上町２３−８,神奈川県,川崎市,川崎区四谷上町,,,,,,,,,,,,,,,,,,,,,,,,,,,,,,,,,,,,,,,,
141305,141305000263 ,神奈川県川崎市,四谷下町公園,ﾖﾂﾔｼﾓﾁｮｳｺｳｴﾝ,,,1003,,,141313,,神奈川県川崎市川崎区四谷下町１９−１６,神奈川県,川崎市,川崎区四谷下町,,,,,,,,,,,,,,,,,,,,,,,,,,,,,,,,,,,,,,,,
141305,141305000264 ,神奈川県川崎市,"四谷ゆめ公園
（旧　四谷下町第２公園）",ﾖﾂﾔﾕﾒｺｳｴﾝ,,,1003,,,141313,,神奈川県川崎市川崎区四谷下町１５−１,神奈川県,川崎市,川崎区四谷下町,,,,,,,,,,,,,,,,,,,,,,,,,,,,,,,,,,,,,,,,
141305,141305000265 ,神奈川県川崎市,渡田山王町公園,ﾜﾀﾘﾀﾞｻﾝﾉｳﾁｮｳｺｳｴﾝ,,,1003,,,141313,,神奈川県川崎市川崎区渡田山王町１３−１,神奈川県,川崎市,川崎区渡田山王町,,,,,,,,,,,,,,,,,,,,,,,,,,,,,,,,,,,,,,,,
141305,141305000266 ,神奈川県川崎市,渡田山王町第２公園,ﾜﾀﾘﾀﾞｻﾝﾉｳﾁｮｳﾀﾞｲ2ｺｳｴﾝ,,,1003,,,141313,,神奈川県川崎市川崎区渡田山王町２５−１８,神奈川県,川崎市,川崎区渡田山王町,,,,,,,,,,,,,,,,,,,,,,,,,,,,,,,,,,,,,,,,
141305,141305000267 ,神奈川県川崎市,渡田第１公園,ﾜﾀﾘﾀﾞﾀﾞｲ1ｺｳｴﾝ,,,1003,,,141313,,神奈川県川崎市川崎区渡田東町５−１,神奈川県,川崎市,川崎区渡田東町,,,,,,,,,,,,,,,,,,,,,,,,,,,,,,,,,,,,,,,,
141305,141305000268 ,神奈川県川崎市,渡田第２公園,ﾜﾀﾘﾀﾞﾀﾞｲ2ｺｳｴﾝ,,,1003,,,141313,,神奈川県川崎市川崎区貝塚２丁目１７−１,神奈川県,川崎市,川崎区貝塚,,,,,,,,,,,,,,,,,,,,,,,,,,,,,,,,,,,,,,,,
141305,141305000269 ,神奈川県川崎市,浅野町緑道,ｱｻﾉﾁｮｳﾘｮｸﾄﾞｳ,,,1003,,,141313,,神奈川県川崎市川崎区浅野町、南渡田町、池上町地内,神奈川県,川崎市,川崎区浅野町、南渡田町、池上町地内,,,,,,,,,,,,,,,,,,,,,,,,,,,,,,,,,,,,,,,,
141305,141305000270 ,神奈川県川崎市,池上新町中緑道,ｲｹｶﾞﾐｼﾝﾁｮｳﾅｶﾘｮｸﾄﾞｳ,,,1003,,,141313,,神奈川県川崎市川崎区池上新町３丁目１−４２,神奈川県,川崎市,川崎区池上新町,,,,,,,,,,,,,,,,,,,,,,,,,,,,,,,,,,,,,,,,
141305,141305000271 ,神奈川県川崎市,池上新町南緑道,ｲｹｶﾞﾐｼﾝﾁｮｳﾐﾅﾐﾘｮｸﾄﾞｳ,,,1003,,,141313,,神奈川県川崎市川崎区池上新町３丁目４,神奈川県,川崎市,川崎区池上新町,,,,,,,,,,,,,,,,,,,,,,,,,,,,,,,,,,,,,,,,
141305,141305000272 ,神奈川県川崎市,池上新町緑道,ｲｹｶﾞﾐｼﾝﾁｮｳﾘｮｸﾄﾞｳ,,,1003,,,141313,,神奈川県川崎市川崎区池上新町３丁目５−４ほか,神奈川県,川崎市,川崎区池上新町,,,,,,,,,,,,,,,,,,,,,,,,,,,,,,,,,,,,,,,,
141305,141305000273 ,神奈川県川崎市,京町緑道,ｷｮｳﾏﾁﾘｮｸﾄﾞｳ,,,1003,,,141313,,神奈川県川崎市川崎区京町３丁目２１,神奈川県,川崎市,川崎区京町,,,,,,,,,,,,,,,,,,,,,,,,,,,,,,,,,,,,,,,,
141305,141305000274 ,神奈川県川崎市,小島新田緑道,ｺｼﾞﾏｼﾝﾃﾞﾝﾘｮｸﾄﾞｳ,,,1003,,,141313,,神奈川県川崎市川崎区田町３丁目８,神奈川県,川崎市,川崎区田町,,,,,,,,,,,,,,,,,,,,,,,,,,,,,,,,,,,,,,,,
141305,141305000275 ,神奈川県川崎市,浅野町緑地,ｱｻﾉﾁｮｳﾘｮｸﾁ,,,1003,,,141313,,神奈川県川崎市川崎区浅野町１−３,神奈川県,川崎市,川崎区浅野町,,,,,,,,,,,,,,,,,,,,,,,,,,,,,,,,,,,,,,,,
141305,141305000276 ,神奈川県川崎市,旭町緑地,ｱｻﾋﾁｮｳﾘｮｸﾁ,,,1003,,,141313,,神奈川県川崎市川崎区旭町２丁目、伊勢町地内,神奈川県,川崎市,川崎区旭町,,,,,,,,,,,,,,,,,,,,,,,,,,,,,,,,,,,,,,,,
141305,141305000277 ,神奈川県川崎市,扇町緑地,ｵｳｷﾞﾏﾁﾘｮｸﾁ,,,1003,,,141313,,神奈川県川崎市川崎区扇町６−９,神奈川県,川崎市,川崎区扇町,,,,,,,,,,,,,,,,,,,,,,,,,,,,,,,,,,,,,,,,
141305,141305000278 ,神奈川県川崎市,小田操緑地,ｵﾀﾞﾐｻｵﾘｮｸﾁ,,,1003,,,141313,,神奈川県川崎市川崎区渡田新町３丁目６−１５,神奈川県,川崎市,川崎区渡田新町,,,,,,,,,,,,,,,,,,,,,,,,,,,,,,,,,,,,,,,,
141305,141305000279 ,神奈川県川崎市,小田緑地,ｵﾀﾞﾘｮｸﾁ,,,1003,,,141313,,神奈川県川崎市川崎区小田１丁目５−１地先,神奈川県,川崎市,川崎区小田,,,,,,,,,,,,,,,,,,,,,,,,,,,,,,,,,,,,,,,,
141305,141305000280 ,神奈川県川崎市,鋼管通５丁目ふれあい緑地,ｺｳｶﾝﾄﾞｵﾘ5ﾁｮｳﾒﾌﾚｱｲﾘｮｸﾁ,,,1003,,,141313,,神奈川県川崎市川崎区鋼管通５丁目２,神奈川県,川崎市,川崎区鋼管通,,,,,,,,,,,,,,,,,,,,,,,,,,,,,,,,,,,,,,,,
141305,141305000281 ,神奈川県川崎市,鋼管通５丁目緑地,ｺｳｶﾝﾄﾞｵﾘ5ﾁｮｳﾒﾘｮｸﾁ,,,1003,,,141313,,神奈川県川崎市川崎区鋼管通５丁目１,神奈川県,川崎市,川崎区鋼管通,,,,,,,,,,,,,,,,,,,,,,,,,,,,,,,,,,,,,,,,
141305,141305000282 ,神奈川県川崎市,小島町緑地,ｺｼﾞﾏﾁｮｳﾘｮｸﾁ,,,1003,,,141313,,神奈川県川崎市川崎区小島町４−１４,神奈川県,川崎市,川崎区小島町,,,,,,,,,,,,,,,,,,,,,,,,,,,,,,,,,,,,,,,,
141305,141305000283 ,神奈川県川崎市,"桜川緑地
（桜本緑地）","ｻｸﾗｶﾞﾜﾘｮｸﾁ
（ｻｸﾗﾓﾄﾘｮｸﾁ）",,,1003,,,141313,,神奈川県川崎市川崎区桜本１丁目２,神奈川県,川崎市,川崎区桜本,,,,,,,,,,,,,,,,,,,,,,,,,,,,,,,,,,,,,,,,
141305,141305000284 ,神奈川県川崎市,桜堀緑地,ｻｸﾗﾎﾞﾘﾘｮｸﾁ,,,1003,,,141313,,神奈川県川崎市川崎区浅野町８−１,神奈川県,川崎市,川崎区浅野町,,,,,,,,,,,,,,,,,,,,,,,,,,,,,,,,,,,,,,,,
141305,141305000285 ,神奈川県川崎市,塩浜小緑地,ｼｵﾊﾏｼｮｳﾘｮｸﾁ,,,1003,,,141313,,神奈川県川崎市川崎区塩浜３丁目２９,神奈川県,川崎市,川崎区塩浜,,,,,,,,,,,,,,,,,,,,,,,,,,,,,,,,,,,,,,,,
141305,141305000286 ,神奈川県川崎市,塩浜緑地,ｼｵﾊﾏﾘｮｸﾁ,,,1003,,,141313,,神奈川県川崎市川崎区塩浜４丁目１４,神奈川県,川崎市,川崎区塩浜,,,,,,,,,,,,,,,,,,,,,,,,,,,,,,,,,,,,,,,,
141305,141305000287 ,神奈川県川崎市,新町緑地,ｼﾝﾁｮｳﾘｮｸﾁ,,,1003,,,141313,,神奈川県川崎市川崎区小田栄１丁目、渡田４丁目、渡田新町３丁目,神奈川県,川崎市,川崎区小田栄,,,,,,,,,,,,,,,,,,,,,,,,,,,,,,,,,,,,,,,,
141305,141305000288 ,神奈川県川崎市,中瀬緑地,ﾅｶｾﾘｮｸﾁ,,,1003,,,141313,,神奈川県川崎市川崎区中瀬２丁目８−１地先,神奈川県,川崎市,川崎区中瀬,,,,,,,,,,,,,,,,,,,,,,,,,,,,,,,,,,,,,,,,
141305,141305000289 ,神奈川県川崎市,多摩川緑地小向町地区,ﾀﾏｶﾞﾜﾘｮｸﾁｺﾑｶｲﾁｮｳﾁｸ,,,1003,,,141321,,神奈川県川崎市幸区小向地内,神奈川県,川崎市,幸区小向地内,,,,,,,,,,,,,,,,,,,,,,,,,,,,,,,,,,,,,,,,
141305,141305000290 ,神奈川県川崎市,多摩川緑地小向仲野町地区,ﾀﾏｶﾞﾜﾘｮｸﾁｺﾑｶｲﾅｶﾉﾁｮｳﾁｸ,,,1003,,,141321,,神奈川県川崎市幸区小向地内,神奈川県,川崎市,幸区小向地内,,,,,,,,,,,,,,,,,,,,,,,,,,,,,,,,,,,,,,,,
141305,141305000291 ,神奈川県川崎市,多摩川緑地多摩川大橋地区,ﾀﾏｶﾞﾜﾘｮｸﾁﾀﾏｶﾞﾜｵｵﾊｼﾁｸ,,,1003,,,141321,,神奈川県川崎市幸区古市場地内,神奈川県,川崎市,幸区古市場地内,,,,,,,,,,,,,,,,,,,,,,,,,,,,,,,,,,,,,,,,
141305,141305000292 ,神奈川県川崎市,多摩川緑地古市場地区,ﾀﾏｶﾞﾜﾘｮｸﾁﾌﾙｲﾁﾊﾞﾁｸ,,,1003,,,141321,,神奈川県川崎市幸区古市場地内,神奈川県,川崎市,幸区古市場地内,,,,,,,,,,,,,,,,,,,,,,,,,,,,,,,,,,,,,,,,
141305,141305000293 ,神奈川県川崎市,御幸公園,ﾐﾕｷｺｳｴﾝ,,,1003,,,141321,,神奈川県川崎市幸区東古市場１,神奈川県,川崎市,幸区東古市場,,,,,,,,,,,,,,,,,,,,,,,,,,,,,,,,,,,,,,,,
141305,141305000294 ,神奈川県川崎市,"夢見ヶ崎公園
（幸区市民健康の森）","ﾕﾒﾐｶﾞｻｷｺｳｴﾝ
（ｻｲﾜｲｸｼﾐﾝｹﾝｺｳﾉﾓﾘ）",,,1003,,,141321,,神奈川県川崎市幸区南加瀬１丁目２−１,神奈川県,川崎市,幸区南加瀬,,,,,,,,,,,,,,,,,,,,,,,,,,,,,,,,,,,,,,,,
141305,141305000295 ,神奈川県川崎市,さいわいふるさと公園,ｻｲﾜｲﾌﾙｻﾄｺｳｴﾝ,,,1003,,,141321,,神奈川県川崎市幸区新川崎７,神奈川県,川崎市,幸区新川崎,,,,,,,,,,,,,,,,,,,,,,,,,,,,,,,,,,,,,,,,
141305,141305000296 ,神奈川県川崎市,南河原公園,ﾐﾅﾐｶﾞﾜﾗｺｳｴﾝ,,,1003,,,141321,,神奈川県川崎市幸区都町７４−２,神奈川県,川崎市,幸区都町,,,,,,,,,,,,,,,,,,,,,,,,,,,,,,,,,,,,,,,,
141305,141305000297 ,神奈川県川崎市,遠藤町公園,ｴﾝﾄﾞｳﾁｮｳｺｳｴﾝ,,,1003,,,141321,,神奈川県川崎市幸区遠藤町４４−３,神奈川県,川崎市,幸区遠藤町,,,,,,,,,,,,,,,,,,,,,,,,,,,,,,,,,,,,,,,,
141305,141305000298 ,神奈川県川崎市,小倉アベリア公園,ｵｸﾞﾗｱﾍﾞﾘｱｺｳｴﾝ,,,1003,,,141321,,神奈川県川崎市幸区小倉４−２８−３,神奈川県,川崎市,幸区小倉,,,,,,,,,,,,,,,,,,,,,,,,,,,,,,,,,,,,,,,,
141305,141305000299 ,神奈川県川崎市,小倉かつら公園,ｵｸﾞﾗｶﾂﾗｺｳｴﾝ,,,1003,,,141321,,神奈川県川崎市幸区小倉４丁目２１−６,神奈川県,川崎市,幸区小倉,,,,,,,,,,,,,,,,,,,,,,,,,,,,,,,,,,,,,,,,
141305,141305000300 ,神奈川県川崎市,小倉北公園,ｵｸﾞﾗｷﾀｺｳｴﾝ,,,1003,,,141321,,神奈川県川崎市幸区小倉２丁目１１−２１,神奈川県,川崎市,幸区小倉,,,,,,,,,,,,,,,,,,,,,,,,,,,,,,,,,,,,,,,,
141305,141305000301 ,神奈川県川崎市,小倉こども公園,ｵｸﾞﾗｺﾄﾞﾓｺｳｴﾝ,,,1003,,,141321,,神奈川県川崎市幸区小倉４丁目５−１１,神奈川県,川崎市,幸区小倉,,,,,,,,,,,,,,,,,,,,,,,,,,,,,,,,,,,,,,,,
141305,141305000302 ,神奈川県川崎市,小倉下町公園,ｵｸﾞﾗｼﾓﾁｮｳｺｳｴﾝ,,,1003,,,141321,,神奈川県川崎市幸区小倉４丁目１２−２２,神奈川県,川崎市,幸区小倉,,,,,,,,,,,,,,,,,,,,,,,,,,,,,,,,,,,,,,,,
141305,141305000303 ,神奈川県川崎市,小倉中公園,ｵｸﾞﾗﾅｶｺｳｴﾝ,,,1003,,,141321,,神奈川県川崎市幸区小倉４丁目８−４,神奈川県,川崎市,幸区小倉,,,,,,,,,,,,,,,,,,,,,,,,,,,,,,,,,,,,,,,,
141305,141305000304 ,神奈川県川崎市,小倉なかよし公園,ｵｸﾞﾗﾅｶﾖｼｺｳｴﾝ,,,1003,,,141321,,神奈川県川崎市幸区小倉２丁目１１−３０,神奈川県,川崎市,幸区小倉,,,,,,,,,,,,,,,,,,,,,,,,,,,,,,,,,,,,,,,,
141305,141305000305 ,神奈川県川崎市,小倉西公園,ｵｸﾞﾗﾆｼｺｳｴﾝ,,,1003,,,141321,,神奈川県川崎市幸区小倉５丁目１７−１,神奈川県,川崎市,幸区小倉,,,,,,,,,,,,,,,,,,,,,,,,,,,,,,,,,,,,,,,,
141305,141305000306 ,神奈川県川崎市,小倉八雲公園,ｵｸﾞﾗﾔｸﾞﾓｺｳｴﾝ,,,1003,,,141321,,神奈川県川崎市幸区小倉５丁目３２−６,神奈川県,川崎市,幸区小倉,,,,,,,,,,,,,,,,,,,,,,,,,,,,,,,,,,,,,,,,
141305,141305000307 ,神奈川県川崎市,小倉４丁目公園,ｵｸﾞﾗ4ﾁｮｳﾒｺｳｴﾝ,,,1003,,,141321,,神奈川県川崎市幸区小倉４丁目１０−３３,神奈川県,川崎市,幸区小倉,,,,,,,,,,,,,,,,,,,,,,,,,,,,,,,,,,,,,,,,
141305,141305000308 ,神奈川県川崎市,"鹿島田１丁目公園
(旧　鹿島田公園）",ｶｼﾏﾀﾞ1ﾁｮｳﾒｺｳｴﾝ,,,1003,,,141321,,神奈川県川崎市幸区鹿島田１丁目６−５０,神奈川県,川崎市,幸区鹿島田,,,,,,,,,,,,,,,,,,,,,,,,,,,,,,,,,,,,,,,,
141305,141305000309 ,神奈川県川崎市,鹿島田２丁目公園,ｶｼﾏﾀﾞ2ﾁｮｳﾒｺｳｴﾝ,,,1003,,,141321,,神奈川県川崎市幸区鹿島田２丁目２１−３５,神奈川県,川崎市,幸区鹿島田,,,,,,,,,,,,,,,,,,,,,,,,,,,,,,,,,,,,,,,,
141305,141305000310 ,神奈川県川崎市,北加瀬２丁目公園,ｷﾀｶｾ2ﾁｮｳﾒｺｳｴﾝ,,,1003,,,141321,,神奈川県川崎市幸区北加瀬２丁目１,神奈川県,川崎市,幸区北加瀬,,,,,,,,,,,,,,,,,,,,,,,,,,,,,,,,,,,,,,,,
141305,141305000311 ,神奈川県川崎市,北加瀬北ノ根公園,ｷﾀｶｾｷﾀﾉﾈｺｳｴﾝ,,,1003,,,141321,,神奈川県川崎市幸区北加瀬１丁目１１−１３,神奈川県,川崎市,幸区北加瀬,,,,,,,,,,,,,,,,,,,,,,,,,,,,,,,,,,,,,,,,
141305,141305000312 ,神奈川県川崎市,北加瀬つつじ公園,ｷﾀｶｾﾂﾂｼﾞｺｳｴﾝ,,,1003,,,141321,,神奈川県川崎市幸区北加瀬１丁目１１−５,神奈川県,川崎市,幸区北加瀬,,,,,,,,,,,,,,,,,,,,,,,,,,,,,,,,,,,,,,,,
141305,141305000313 ,神奈川県川崎市,北加瀬熊野台公園,ｷﾀｶｾｸﾏﾉﾀﾞｲｺｳｴﾝ,,,1003,,,141321,,神奈川県川崎市幸区北加瀬２丁目１２−１,神奈川県,川崎市,幸区北加瀬,,,,,,,,,,,,,,,,,,,,,,,,,,,,,,,,,,,,,,,,
141305,141305000314 ,神奈川県川崎市,"北加瀬公園
（旧　北加瀬第２公園）",ｷﾀｶｾｺｳｴﾝ,,,1003,,,141321,,神奈川県川崎市幸区北加瀬１丁目２２−２０,神奈川県,川崎市,幸区北加瀬,,,,,,,,,,,,,,,,,,,,,,,,,,,,,,,,,,,,,,,,
141305,141305000315 ,神奈川県川崎市,北加瀬第１公園,ｷﾀｶｾﾀﾞｲ1ｺｳｴﾝ,,,1003,,,141321,,神奈川県川崎市幸区北加瀬３丁目１８−１,神奈川県,川崎市,幸区北加瀬,,,,,,,,,,,,,,,,,,,,,,,,,,,,,,,,,,,,,,,,
141305,141305000316 ,神奈川県川崎市,北加瀬原町公園,ｷﾀｶｾﾊﾗﾁｮｳｺｳｴﾝ,,,1003,,,141321,,神奈川県川崎市幸区北加瀬３丁目３,神奈川県,川崎市,幸区北加瀬,,,,,,,,,,,,,,,,,,,,,,,,,,,,,,,,,,,,,,,,
141305,141305000317 ,神奈川県川崎市,北加瀬ゆりのき公園,ｷﾀｶｾﾕﾘﾉｷｺｳｴﾝ,,,1003,,,141321,,神奈川県川崎市幸区北加瀬２丁目８０−４,神奈川県,川崎市,幸区北加瀬,,,,,,,,,,,,,,,,,,,,,,,,,,,,,,,,,,,,,,,,
141305,141305000318 ,神奈川県川崎市,小向公園,ｺﾑｶｲｺｳｴﾝ,,,1003,,,141321,,神奈川県川崎市幸区小向仲野町３−５,神奈川県,川崎市,幸区小向仲野町,,,,,,,,,,,,,,,,,,,,,,,,,,,,,,,,,,,,,,,,
141305,141305000319 ,神奈川県川崎市,小向第１公園,ｺﾑｶｲﾀﾞｲ1ｺｳｴﾝ,,,1003,,,141321,,神奈川県川崎市幸区小向仲野町１３−７,神奈川県,川崎市,幸区小向仲野町,,,,,,,,,,,,,,,,,,,,,,,,,,,,,,,,,,,,,,,,
141305,141305000320 ,神奈川県川崎市,小向第２公園,ｺﾑｶｲﾀﾞｲ2ｺｳｴﾝ,,,1003,,,141321,,神奈川県川崎市幸区小向仲野町５−２,神奈川県,川崎市,幸区小向仲野町,,,,,,,,,,,,,,,,,,,,,,,,,,,,,,,,,,,,,,,,
141305,141305000321 ,神奈川県川崎市,小向第３公園,ｺﾑｶｲﾀﾞｲ3ｺｳｴﾝ,,,1003,,,141321,,神奈川県川崎市幸区小向西町４丁目１５,神奈川県,川崎市,幸区小向西町,,,,,,,,,,,,,,,,,,,,,,,,,,,,,,,,,,,,,,,,
141305,141305000322 ,神奈川県川崎市,小向第４公園,ｺﾑｶｲﾀﾞｲ4ｺｳｴﾝ,,,1003,,,141321,,神奈川県川崎市幸区小向西町３丁目５０−１,神奈川県,川崎市,幸区小向西町,,,,,,,,,,,,,,,,,,,,,,,,,,,,,,,,,,,,,,,,
141305,141305000323 ,神奈川県川崎市,小向第５公園,ｺﾑｶｲﾀﾞｲ5ｺｳｴﾝ,,,1003,,,141321,,神奈川県川崎市幸区小向西町４丁目８１,神奈川県,川崎市,幸区小向西町,,,,,,,,,,,,,,,,,,,,,,,,,,,,,,,,,,,,,,,,
141305,141305000324 ,神奈川県川崎市,小向第６公園,ｺﾑｶｲﾀﾞｲ6ｺｳｴﾝ,,,1003,,,141321,,神奈川県川崎市幸区小向町１７−１,神奈川県,川崎市,幸区小向町,,,,,,,,,,,,,,,,,,,,,,,,,,,,,,,,,,,,,,,,
141305,141305000325 ,神奈川県川崎市,小向第７公園,ｺﾑｶｲﾀﾞｲ7ｺｳｴﾝ,,,1003,,,141321,,神奈川県川崎市幸区小向西町１丁目６５,神奈川県,川崎市,幸区小向西町,,,,,,,,,,,,,,,,,,,,,,,,,,,,,,,,,,,,,,,,
141305,141305000326 ,神奈川県川崎市,小向仲野町さんかく公園,ｺﾑｶｲﾅｶﾉﾁｮｳｻﾝｶｸｺｳｴﾝ,,,1003,,,141321,,神奈川県川崎市幸区小向仲野町１４−１０,神奈川県,川崎市,幸区小向仲野町,,,,,,,,,,,,,,,,,,,,,,,,,,,,,,,,,,,,,,,,
141305,141305000327 ,神奈川県川崎市,紺屋町ニコニコ公園,ｺﾝﾔﾏﾁﾆｺﾆｺｺｳｴﾝ,,,1003,,,141321,,神奈川県川崎市幸区紺屋町１４,神奈川県,川崎市,幸区紺屋町,,,,,,,,,,,,,,,,,,,,,,,,,,,,,,,,,,,,,,,,
141305,141305000328 ,神奈川県川崎市,幸町公園,ｻｲﾜｲﾁｮｳｺｳｴﾝ,,,1003,,,141321,,神奈川県川崎市幸区幸町３丁目９,神奈川県,川崎市,幸区幸町,,,,,,,,,,,,,,,,,,,,,,,,,,,,,,,,,,,,,,,,
141305,141305000329 ,神奈川県川崎市,"下平間あおば公園
（旧　下平間西公園）",ｼﾓﾋﾗﾏｱｵﾊﾞｺｳｴﾝ,,,1003,,,141321,,神奈川県川崎市幸区下平間１−５,神奈川県,川崎市,幸区下平間,,,,,,,,,,,,,,,,,,,,,,,,,,,,,,,,,,,,,,,,
141305,141305000330 ,神奈川県川崎市,下平間稲荷公園,ｼﾓﾋﾗﾏｲﾅﾘｺｳｴﾝ,,,1003,,,141321,,神奈川県川崎市幸区下平間６８−５,神奈川県,川崎市,幸区下平間,,,,,,,,,,,,,,,,,,,,,,,,,,,,,,,,,,,,,,,,
141305,141305000331 ,神奈川県川崎市,下平間公園,ｼﾓﾋﾗﾏｺｳｴﾝ,,,1003,,,141321,,神奈川県川崎市幸区下平間４８−２０,神奈川県,川崎市,幸区下平間,,,,,,,,,,,,,,,,,,,,,,,,,,,,,,,,,,,,,,,,
141305,141305000332 ,神奈川県川崎市,下平間第２公園,ｼﾓﾋﾗﾏﾀﾞｲ2ｺｳｴﾝ,,,1003,,,141321,,神奈川県川崎市幸区下平間３８７−３,神奈川県,川崎市,幸区下平間,,,,,,,,,,,,,,,,,,,,,,,,,,,,,,,,,,,,,,,,
141305,141305000333 ,神奈川県川崎市,下平間春風公園,ｼﾓﾋﾗﾊﾙｶｾﾞｺｳｴﾝ,,,1003,,,141321,,神奈川県川崎市幸区下平間２３３−９,神奈川県,川崎市,幸区下平間,,,,,,,,,,,,,,,,,,,,,,,,,,,,,,,,,,,,,,,,
141305,141305000334 ,神奈川県川崎市,新川崎ふれあい公園,ｼﾝｶﾜｻﾌﾚｱｲｺｳｴﾝ,,,1003,,,141321,,神奈川県川崎市幸区新川崎１−１,神奈川県,川崎市,幸区新川崎,,,,,,,,,,,,,,,,,,,,,,,,,,,,,,,,,,,,,,,,
141305,141305000335 ,神奈川県川崎市,神明町公園,ｼﾝﾒｲﾁｮｳｺｳｴﾝ,,,1003,,,141321,,神奈川県川崎市幸区神明町２丁目２-２,神奈川県,川崎市,幸区神明町,,,,,,,,,,,,,,,,,,,,,,,,,,,,,,,,,,,,,,,,
141305,141305000336 ,神奈川県川崎市,諏訪公園,ｽﾜｺｳｴﾝ,,,1003,,,141321,,神奈川県川崎市幸区南幸町２丁目３８−１,神奈川県,川崎市,幸区南幸町,,,,,,,,,,,,,,,,,,,,,,,,,,,,,,,,,,,,,,,,
141305,141305000337 ,神奈川県川崎市,塚越あさひ公園,ﾂｶｺﾞｼｱｻﾋｺｳｴﾝ,,,1003,,,141321,,神奈川県川崎市幸区塚越４丁目３２０−６,神奈川県,川崎市,幸区塚越,,,,,,,,,,,,,,,,,,,,,,,,,,,,,,,,,,,,,,,,
141305,141305000338 ,神奈川県川崎市,塚越公園,ﾂｶｺﾞｼｺｳｴﾝ,,,1003,,,141321,,神奈川県川崎市幸区塚越４丁目３４５−１２,神奈川県,川崎市,幸区塚越,,,,,,,,,,,,,,,,,,,,,,,,,,,,,,,,,,,,,,,,
141305,141305000339 ,神奈川県川崎市,塚越こかげ公園,ﾂｶｺﾞｼｺｶｹﾞｺｳｴﾝ,,,1003,,,141321,,神奈川県川崎市幸区塚越４丁目３４５−１５,神奈川県,川崎市,幸区塚越,,,,,,,,,,,,,,,,,,,,,,,,,,,,,,,,,,,,,,,,
141305,141305000340 ,神奈川県川崎市,塚越３丁目さくらの公園,ﾂｶｺﾞｼ3ﾁｮｳﾒｻｸﾗﾉｺｳｴﾝ,,,1003,,,141321,,神奈川県川崎市幸区塚越３丁目４０６−１,神奈川県,川崎市,幸区塚越,,,,,,,,,,,,,,,,,,,,,,,,,,,,,,,,,,,,,,,,
141305,141305000341 ,神奈川県川崎市,塚越４丁目公園,ﾂｶｺﾞｼ4ﾁｮｳﾒｺｳｴﾝ,,,1003,,,141321,,神奈川県川崎市幸区塚越４丁目３１４−３,神奈川県,川崎市,幸区塚越,,,,,,,,,,,,,,,,,,,,,,,,,,,,,,,,,,,,,,,,
141305,141305000342 ,神奈川県川崎市,塚越第２公園,ﾂｶｺﾞｼﾀﾞｲ2ｺｳｴﾝ,,,1003,,,141321,,神奈川県川崎市幸区塚越１丁目６０−８４,神奈川県,川崎市,幸区塚越,,,,,,,,,,,,,,,,,,,,,,,,,,,,,,,,,,,,,,,,
141305,141305000343 ,神奈川県川崎市,塚越第３公園,ﾂｶｺﾞｼﾀﾞｲ3ｺｳｴﾝ,,,1003,,,141321,,神奈川県川崎市幸区塚越４丁目３６３−２０,神奈川県,川崎市,幸区塚越,,,,,,,,,,,,,,,,,,,,,,,,,,,,,,,,,,,,,,,,
141305,141305000344 ,神奈川県川崎市,塚越第４公園,ﾂｶｺﾞｼﾀﾞｲ4ｺｳｴﾝ,,,1003,,,141321,,神奈川県川崎市幸区塚越２丁目２２０−１７,神奈川県,川崎市,幸区塚越,,,,,,,,,,,,,,,,,,,,,,,,,,,,,,,,,,,,,,,,
141305,141305000345 ,神奈川県川崎市,塚越沼ノ上公園,ﾂｶｺﾞｼﾇﾏﾉｳｴｺｳｴﾝ,,,1003,,,141321,,神奈川県川崎市幸区塚越２丁目２０７,神奈川県,川崎市,幸区塚越,,,,,,,,,,,,,,,,,,,,,,,,,,,,,,,,,,,,,,,,
141305,141305000346 ,神奈川県川崎市,塚越ふれあい公園,ﾂｶｺﾞｼﾌﾚｱｲｺｳｴﾝ,,,1003,,,141321,,神奈川県川崎市幸区塚越３丁目４８４−５,神奈川県,川崎市,幸区塚越,,,,,,,,,,,,,,,,,,,,,,,,,,,,,,,,,,,,,,,,
141305,141305000347 ,神奈川県川崎市,塚越ゆうひ公園,ﾂｶｺﾞｼﾕｳﾋｺｳｴﾝ,,,1003,,,141321,,神奈川県川崎市幸区塚越４丁目３２０−９,神奈川県,川崎市,幸区塚越,,,,,,,,,,,,,,,,,,,,,,,,,,,,,,,,,,,,,,,,
141305,141305000348 ,神奈川県川崎市,戸手第１公園,ﾄﾃﾞﾀﾞｲ1ｺｳｴﾝ,,,1003,,,141321,,神奈川県川崎市幸区戸手本町１丁目７６−１,神奈川県,川崎市,幸区戸手本町,,,,,,,,,,,,,,,,,,,,,,,,,,,,,,,,,,,,,,,,
141305,141305000349 ,神奈川県川崎市,戸手第２公園,ﾄﾃﾞﾀﾞｲ2ｺｳｴﾝ,,,1003,,,141321,,神奈川県川崎市幸区小向西町４丁目１２５地先,神奈川県,川崎市,幸区小向西町,,,,,,,,,,,,,,,,,,,,,,,,,,,,,,,,,,,,,,,,
141305,141305000350 ,神奈川県川崎市,戸手多摩川公園,ﾄﾃﾞﾀﾏｶﾞﾜｺｳｴﾝ,,,1003,,,141321,,神奈川県川崎市幸区戸手４丁目７,神奈川県,川崎市,幸区戸手,,,,,,,,,,,,,,,,,,,,,,,,,,,,,,,,,,,,,,,,
141305,141305000351 ,神奈川県川崎市,戸手町公園,ﾄﾃﾞﾁｮｳｺｳｴﾝ,,,1003,,,141321,,神奈川県川崎市幸区戸手３丁目２−１,神奈川県,川崎市,幸区戸手,,,,,,,,,,,,,,,,,,,,,,,,,,,,,,,,,,,,,,,,
141305,141305000352 ,神奈川県川崎市,戸手東公園,ﾄﾃﾞﾋｶﾞｼｺｳｴﾝ,,,1003,,,141321,,神奈川県川崎市幸区戸手４丁目４−３,神奈川県,川崎市,幸区戸手,,,,,,,,,,,,,,,,,,,,,,,,,,,,,,,,,,,,,,,,
141305,141305000353 ,神奈川県川崎市,戸手本町こぶし公園,ﾄﾃﾞﾎﾝﾁｮｳｺﾌﾞｼｺｳｴﾝ,,,1003,,,141321,,神奈川県川崎市幸区戸手本町２丁目４１１−２,神奈川県,川崎市,幸区戸手本町,,,,,,,,,,,,,,,,,,,,,,,,,,,,,,,,,,,,,,,,
141305,141305000354 ,神奈川県川崎市,戸手本町はなの木公園,ﾄﾃﾞﾎﾝﾁｮｳﾊﾅﾉｷｺｳｴﾝ,,,1003,,,141321,,神奈川県川崎市幸区戸手本町２丁目３９６−４,神奈川県,川崎市,幸区戸手本町,,,,,,,,,,,,,,,,,,,,,,,,,,,,,,,,,,,,,,,,
141305,141305000355 ,神奈川県川崎市,戸手本町りんごの木公園,ﾄﾃﾞﾎﾝﾁｮｳﾘﾝｺﾞﾉｷｺｳｴﾝ,,,1003,,,141321,,神奈川県川崎市幸区戸手本町２丁目３９３−３,神奈川県,川崎市,幸区戸手本町,,,,,,,,,,,,,,,,,,,,,,,,,,,,,,,,,,,,,,,,
141305,141305000356 ,神奈川県川崎市,戸手４丁目公園,ﾄﾃﾞ4ﾁｮｳﾒｺｳｴﾝ,,,1003,,,141321,,神奈川県川崎市幸区戸手４丁目１１−２,神奈川県,川崎市,幸区戸手,,,,,,,,,,,,,,,,,,,,,,,,,,,,,,,,,,,,,,,,
141305,141305000357 ,神奈川県川崎市,戸手４丁目ひだまり公園,ﾄﾃﾞ4ﾁｮｳﾒﾋﾀﾞﾏﾘｺｳｴﾝ,,,1003,,,141321,,神奈川県川崎市幸区戸手４丁目３−１５,神奈川県,川崎市,幸区戸手,,,,,,,,,,,,,,,,,,,,,,,,,,,,,,,,,,,,,,,,
141305,141305000358 ,神奈川県川崎市,戸手４丁目ぽかぽか公園,ﾄﾃﾞ4ﾁｮｳﾒﾎﾟｶﾎﾟｶｺｳｴﾝ,,,1003,,,141321,,神奈川県川崎市幸区戸手４丁目５３−５４,神奈川県,川崎市,幸区戸手,,,,,,,,,,,,,,,,,,,,,,,,,,,,,,,,,,,,,,,,
141305,141305000359 ,神奈川県川崎市,中幸町３丁目さくら公園,ﾅｶｻｲﾜｲﾁｮｳ3ﾁｮｳｻｸﾗｺｳｴﾝ,,,1003,,,141321,,神奈川県川崎市幸区中幸町３丁目２６−４５、４６,神奈川県,川崎市,幸区中幸町,,,,,,,,,,,,,,,,,,,,,,,,,,,,,,,,,,,,,,,,
141305,141305000360 ,神奈川県川崎市,西口さんかく公園,ﾆｼｸﾞﾁｻﾝｶｸｺｳｴﾝ,,,1003,,,141321,,神奈川県川崎市幸区大宮町２８−７,神奈川県,川崎市,幸区大宮町,,,,,,,,,,,,,,,,,,,,,,,,,,,,,,,,,,,,,,,,
141305,141305000361 ,神奈川県川崎市,東小倉公園,ﾋｶﾞｼｵｸﾞﾗｺｳｴﾝ,,,1003,,,141321,,神奈川県川崎市幸区小倉４丁目１７−１,神奈川県,川崎市,幸区小倉,,,,,,,,,,,,,,,,,,,,,,,,,,,,,,,,,,,,,,,,
141305,141305000362 ,神奈川県川崎市,東小倉こども公園,ﾋｶﾞｼｵｸﾞﾗｺﾄﾞﾓｺｳｴﾝ,,,1003,,,141321,,神奈川県川崎市幸区東小倉６−３０,神奈川県,川崎市,幸区東小倉,,,,,,,,,,,,,,,,,,,,,,,,,,,,,,,,,,,,,,,,
141305,141305000363 ,神奈川県川崎市,東古市場第１公園,ﾋｶﾞｼﾌﾙｲﾁﾊﾞﾀﾞｲ1ｺｳｴﾝ,,,1003,,,141321,,神奈川県川崎市幸区東古市場８３,神奈川県,川崎市,幸区東古市場,,,,,,,,,,,,,,,,,,,,,,,,,,,,,,,,,,,,,,,,
141305,141305000364 ,神奈川県川崎市,東古市場第２公園,ﾋｶﾞｼﾌﾙｲﾁﾊﾞﾀﾞｲ2ｺｳｴﾝ,,,1003,,,141321,,神奈川県川崎市幸区東古市場９５,神奈川県,川崎市,幸区東古市場,,,,,,,,,,,,,,,,,,,,,,,,,,,,,,,,,,,,,,,,
141305,141305000365 ,神奈川県川崎市,東古市場中央公園,ﾋｶﾞｼﾌﾙｲﾁﾊﾞﾁｭｳｵｳｺｳｴﾝ,,,1003,,,141321,,神奈川県川崎市幸区東古市場１１８−４,神奈川県,川崎市,幸区東古市場,,,,,,,,,,,,,,,,,,,,,,,,,,,,,,,,,,,,,,,,
141305,141305000366 ,神奈川県川崎市,古市場公園,ﾌﾙｲﾁﾊﾞｺｳｴﾝ,,,1003,,,141321,,神奈川県川崎市幸区東古市場１１６,神奈川県,川崎市,幸区東古市場,,,,,,,,,,,,,,,,,,,,,,,,,,,,,,,,,,,,,,,,
141305,141305000367 ,神奈川県川崎市,古市場第１公園,ﾌﾙｲﾁﾊﾞﾀﾞｲ1ｺｳｴﾝ,,,1003,,,141321,,神奈川県川崎市幸区古市場１丁目１９,神奈川県,川崎市,幸区古市場,,,,,,,,,,,,,,,,,,,,,,,,,,,,,,,,,,,,,,,,
141305,141305000368 ,神奈川県川崎市,古市場第２公園,ﾌﾙｲﾁﾊﾞﾀﾞｲ2ｺｳｴﾝ,,,1003,,,141321,,神奈川県川崎市幸区古市場１丁目４５,神奈川県,川崎市,幸区古市場,,,,,,,,,,,,,,,,,,,,,,,,,,,,,,,,,,,,,,,,
141305,141305000369 ,神奈川県川崎市,古市場第３公園,ﾌﾙｲﾁﾊﾞﾀﾞｲ3ｺｳｴﾝ,,,1003,,,141321,,神奈川県川崎市幸区古市場２丁目１１６,神奈川県,川崎市,幸区古市場,,,,,,,,,,,,,,,,,,,,,,,,,,,,,,,,,,,,,,,,
141305,141305000370 ,神奈川県川崎市,古市場第４公園,ﾌﾙｲﾁﾊﾞﾀﾞｲ4ｺｳｴﾝ,,,1003,,,141321,,神奈川県川崎市幸区古市場２丁目９７,神奈川県,川崎市,幸区古市場,,,,,,,,,,,,,,,,,,,,,,,,,,,,,,,,,,,,,,,,
141305,141305000371 ,神奈川県川崎市,古市場第５公園,ﾌﾙｲﾁﾊﾞﾀﾞｲ5ｺｳｴﾝ,,,1003,,,141321,,神奈川県川崎市幸区古市場２丁目８４,神奈川県,川崎市,幸区古市場,,,,,,,,,,,,,,,,,,,,,,,,,,,,,,,,,,,,,,,,
141305,141305000372 ,神奈川県川崎市,古市場第６公園,ﾌﾙｲﾁﾊﾞﾀﾞｲ6ｺｳｴﾝ,,,1003,,,141321,,神奈川県川崎市幸区古市場１丁目６４,神奈川県,川崎市,幸区古市場,,,,,,,,,,,,,,,,,,,,,,,,,,,,,,,,,,,,,,,,
141305,141305000373 ,神奈川県川崎市,古市場第７公園,ﾌﾙｲﾁﾊﾞﾀﾞｲ7ｺｳｴﾝ,,,1003,,,141321,,神奈川県川崎市幸区古市場２丁目７５,神奈川県,川崎市,幸区古市場,,,,,,,,,,,,,,,,,,,,,,,,,,,,,,,,,,,,,,,,
141305,141305000374 ,神奈川県川崎市,古市場東公園,ﾌﾙｲﾁﾊﾞﾋｶﾞｼｺｳｴﾝ,,,1003,,,141321,,神奈川県川崎市幸区東古市場８２−３,神奈川県,川崎市,幸区東古市場,,,,,,,,,,,,,,,,,,,,,,,,,,,,,,,,,,,,,,,,
141305,141305000375 ,神奈川県川崎市,古市場ほほえみ公園,ﾌﾙｲﾁﾊﾞﾎﾎｴﾐｺｳｴﾝ,,,1003,,,141321,,神奈川県川崎市幸区古市場１７８６−２１,神奈川県,川崎市,幸区古市場,,,,,,,,,,,,,,,,,,,,,,,,,,,,,,,,,,,,,,,,
141305,141305000376 ,神奈川県川崎市,古市場まちかど公園,ﾌﾙｲﾁﾊﾞﾏﾁｶﾄﾞｺｳｴﾝ,,,1003,,,141321,,神奈川県川崎市幸区古市場１７５６−５,神奈川県,川崎市,幸区古市場,,,,,,,,,,,,,,,,,,,,,,,,,,,,,,,,,,,,,,,,
141305,141305000377 ,神奈川県川崎市,古市場南公園,ﾌﾙｲﾁﾊﾞﾐﾅﾐｺｳｴﾝ,,,1003,,,141321,,神奈川県川崎市幸区古市場１７８１−５,神奈川県,川崎市,幸区古市場,,,,,,,,,,,,,,,,,,,,,,,,,,,,,,,,,,,,,,,,
141305,141305000378 ,神奈川県川崎市,古川町さくら公園,ﾌﾙｶﾜﾏﾁｻｸﾗｺｳｴﾝ,,,1003,,,141321,,神奈川県川崎市幸区古川町１５９−４,神奈川県,川崎市,幸区古川町,,,,,,,,,,,,,,,,,,,,,,,,,,,,,,,,,,,,,,,,
141305,141305000379 ,神奈川県川崎市,堀川町公園,ﾎﾘｶﾜﾁｮｳｺｳｴﾝ,,,1003,,,141321,,神奈川県川崎市幸区堀川町４−３４５−１５,神奈川県,川崎市,幸区堀川町,,,,,,,,,,,,,,,,,,,,,,,,,,,,,,,,,,,,,,,,
141305,141305000380 ,神奈川県川崎市,町田堀ふれあい公園,ﾏﾁﾀﾞﾎﾞﾘﾌﾚｱｲｺｳｴﾝ,,,1003,,,141321,,神奈川県川崎市幸区新塚越１−７,神奈川県,川崎市,幸区新塚越,,,,,,,,,,,,,,,,,,,,,,,,,,,,,,,,,,,,,,,,
141305,141305000381 ,神奈川県川崎市,南加瀬江川公園,ﾐﾅﾐｶｾｴｶﾞﾜｺｳｴﾝ,,,1003,,,141321,,神奈川県川崎市幸区南加瀬４丁目２０−１６,神奈川県,川崎市,幸区南加瀬,,,,,,,,,,,,,,,,,,,,,,,,,,,,,,,,,,,,,,,,
141305,141305000382 ,神奈川県川崎市,南加瀬けやき公園,ﾐﾅﾐｶｾｹﾔｷｺｳｴﾝ,,,1003,,,141321,,神奈川県川崎市幸区南加瀬４丁目３５−４,神奈川県,川崎市,幸区南加瀬,,,,,,,,,,,,,,,,,,,,,,,,,,,,,,,,,,,,,,,,
141305,141305000383 ,神奈川県川崎市,南加瀬五反公園,ﾐﾅﾐｶｾｺﾞﾀﾝｺｳｴﾝ,,,1003,,,141321,,神奈川県川崎市幸区南加瀬２丁目１９−４,神奈川県,川崎市,幸区南加瀬,,,,,,,,,,,,,,,,,,,,,,,,,,,,,,,,,,,,,,,,
141305,141305000384 ,神奈川県川崎市,南加瀬下町公園,ﾐﾅﾐｶｾｼﾓﾁｮｳｺｳｴﾝ,,,1003,,,141321,,神奈川県川崎市幸区南加瀬４丁目３７,神奈川県,川崎市,幸区南加瀬,,,,,,,,,,,,,,,,,,,,,,,,,,,,,,,,,,,,,,,,
141305,141305000385 ,神奈川県川崎市,南加瀬第１公園,ﾐﾅﾐｶｾﾀﾞｲ1ｺｳｴﾝ,,,1003,,,141321,,神奈川県川崎市幸区南加瀬３丁目２４−１５,神奈川県,川崎市,幸区南加瀬,,,,,,,,,,,,,,,,,,,,,,,,,,,,,,,,,,,,,,,,
141305,141305000386 ,神奈川県川崎市,南加瀬辻公園,ﾐﾅﾐｶｾﾂｼﾞｺｳｴﾝ,,,1003,,,141321,,神奈川県川崎市幸区南加瀬５丁目３８−３,神奈川県,川崎市,幸区南加瀬,,,,,,,,,,,,,,,,,,,,,,,,,,,,,,,,,,,,,,,,
141305,141305000387 ,神奈川県川崎市,夢見ふれあい公園,ﾕﾒﾐﾌﾚｱｲｺｳｴﾝ,,,1003,,,141321,,神奈川県川崎市幸区南加瀬１丁目７−７,神奈川県,川崎市,幸区南加瀬,,,,,,,,,,,,,,,,,,,,,,,,,,,,,,,,,,,,,,,,
141305,141305000388 ,神奈川県川崎市,柳町公園,ﾔﾅｷﾞﾁｮｳｺｳｴﾝ,,,1003,,,141321,,神奈川県川崎市幸区柳町４２,神奈川県,川崎市,幸区柳町,,,,,,,,,,,,,,,,,,,,,,,,,,,,,,,,,,,,,,,,
141305,141305000389 ,神奈川県川崎市,"小倉緑道
